[
    {
        "start station name":"W 52 St & 11 Ave",
        "start station latitude":40.76727216,
        "start station longitude":-73.99392888
    },
    {
        "start station name":"Franklin St & W Broadway",
        "start station latitude":40.71911552,
        "start station longitude":-74.00666661
    },
    {
        "start station name":"St James Pl & Pearl St",
        "start station latitude":40.71117416,
        "start station longitude":-74.00016545
    },
    {
        "start station name":"Atlantic Ave & Fort Greene Pl",
        "start station latitude":40.68382604,
        "start station longitude":-73.97632328
    },
    {
        "start station name":"W 17 St & 8 Ave",
        "start station latitude":40.74177603,
        "start station longitude":-74.00149746
    },
    {
        "start station name":"Park Ave & St Edwards St",
        "start station latitude":40.69608941,
        "start station longitude":-73.97803415
    },
    {
        "start station name":"Lexington Ave & Classon Ave",
        "start station latitude":40.68676793,
        "start station longitude":-73.95928168
    },
    {
        "start station name":"Barrow St & Hudson St",
        "start station latitude":40.73172428,
        "start station longitude":-74.00674436
    },
    {
        "start station name":"MacDougal St & Prince St",
        "start station latitude":40.72710258,
        "start station longitude":-74.00297088
    },
    {
        "start station name":"Clinton St & Joralemon St",
        "start station latitude":40.69239502,
        "start station longitude":-73.99337909
    },
    {
        "start station name":"Nassau St & Navy St",
        "start station latitude":40.69839895,
        "start station longitude":-73.98068914
    },
    {
        "start station name":"Hudson St & Reade St",
        "start station latitude":40.71625008,
        "start station longitude":-74.0091059
    },
    {
        "start station name":"E 2 St & Avenue C",
        "start station latitude":40.7208736,
        "start station longitude":-73.98085795
    },
    {
        "start station name":"Cleveland Pl & Spring St",
        "start station latitude":40.7221037867,
        "start station longitude":-73.9972490072
    },
    {
        "start station name":"Henry St & Atlantic Ave",
        "start station latitude":40.69089272,
        "start station longitude":-73.99612349
    },
    {
        "start station name":"LaGuardia Pl & W 3 St",
        "start station latitude":40.72917025,
        "start station longitude":-73.99810231
    },
    {
        "start station name":"E 47 St & 2 Ave",
        "start station latitude":40.75323098,
        "start station longitude":-73.97032517
    },
    {
        "start station name":"E 39 St & 3 Ave",
        "start station latitude":40.7489006,
        "start station longitude":-73.97604882
    },
    {
        "start station name":"W 18 St & 6 Ave",
        "start station latitude":40.73971301,
        "start station longitude":-73.99456405
    },
    {
        "start station name":"Broadway & W 49 St",
        "start station latitude":40.760683271,
        "start station longitude":-73.9845272899
    },
    {
        "start station name":"E 25 St & 1 Ave",
        "start station latitude":40.7381765,
        "start station longitude":-73.97738662
    },
    {
        "start station name":"Liberty St & Broadway",
        "start station latitude":40.70905623,
        "start station longitude":-74.01043382
    },
    {
        "start station name":"W 16 St & The High Line",
        "start station latitude":40.74334935,
        "start station longitude":-74.00681753
    },
    {
        "start station name":"Columbia Heights & Cranberry St",
        "start station latitude":40.70037867,
        "start station longitude":-73.99548059
    },
    {
        "start station name":"Old Fulton St",
        "start station latitude":40.70277159,
        "start station longitude":-73.99383605
    },
    {
        "start station name":"W 13 St & 7 Ave",
        "start station latitude":40.73781509,
        "start station longitude":-73.99994661
    },
    {
        "start station name":"Spruce St & Nassau St",
        "start station latitude":40.71146364,
        "start station longitude":-74.00552427
    },
    {
        "start station name":"E 48 St & 3 Ave",
        "start station latitude":40.7546011026,
        "start station longitude":-73.971878855
    },
    {
        "start station name":"Great Jones St",
        "start station latitude":40.72743423,
        "start station longitude":-73.99379025
    },
    {
        "start station name":"St Marks Pl & 2 Ave",
        "start station latitude":40.7284186,
        "start station longitude":-73.98713956
    },
    {
        "start station name":"E 11 St & 2 Ave",
        "start station latitude":40.73047309,
        "start station longitude":-73.98672378
    },
    {
        "start station name":"Bank St & Washington St",
        "start station latitude":40.7361967,
        "start station longitude":-74.00859207
    },
    {
        "start station name":"Willoughby St & Fleet St",
        "start station latitude":40.69196566,
        "start station longitude":-73.9813018
    },
    {
        "start station name":"DeKalb Ave & S Portland Ave",
        "start station latitude":40.68981035,
        "start station longitude":-73.97493121
    },
    {
        "start station name":"Carlton Ave & Flushing Ave",
        "start station latitude":40.697787,
        "start station longitude":-73.973736
    },
    {
        "start station name":"Fulton St & Rockwell Pl",
        "start station latitude":40.68841,
        "start station longitude":-73.979458
    },
    {
        "start station name":"Willoughby Ave & Hall St",
        "start station latitude":40.69196035,
        "start station longitude":-73.96536851
    },
    {
        "start station name":"Myrtle Ave & St Edwards St",
        "start station latitude":40.69327018,
        "start station longitude":-73.97703874
    },
    {
        "start station name":"Perry St & Bleecker St",
        "start station latitude":40.73535398,
        "start station longitude":-74.00483091
    },
    {
        "start station name":"Laight St & Hudson St",
        "start station latitude":40.72185379,
        "start station longitude":-74.00771779
    },
    {
        "start station name":"Harrison St & Hudson St",
        "start station latitude":40.71870987,
        "start station longitude":-74.0090009
    },
    {
        "start station name":"Mott St & Prince St",
        "start station latitude":40.72317958,
        "start station longitude":-73.99480012
    },
    {
        "start station name":"MacDougal St & Washington Sq",
        "start station latitude":40.73226398,
        "start station longitude":-73.99852205
    },
    {
        "start station name":"W 11 St & 6 Ave",
        "start station latitude":40.73532427,
        "start station longitude":-73.99800419
    },
    {
        "start station name":"Lispenard St & Broadway",
        "start station latitude":40.71939226,
        "start station longitude":-74.00247214
    },
    {
        "start station name":"DeKalb Ave & Vanderbilt Ave",
        "start station latitude":40.68940747,
        "start station longitude":-73.96885458
    },
    {
        "start station name":"South St & Whitehall St",
        "start station latitude":40.70122128,
        "start station longitude":-74.01234218
    },
    {
        "start station name":"Broad St & Bridge St",
        "start station latitude":40.70365182,
        "start station longitude":-74.01167797
    },
    {
        "start station name":"Johnson St & Gold St",
        "start station latitude":40.69474881,
        "start station longitude":-73.98362464
    },
    {
        "start station name":"Washington Park",
        "start station latitude":40.6917823,
        "start station longitude":-73.9737299
    },
    {
        "start station name":"Maiden Ln & Pearl St",
        "start station latitude":40.70706456,
        "start station longitude":-74.00731853
    },
    {
        "start station name":"Stanton St & Chrystie St",
        "start station latitude":40.72229346,
        "start station longitude":-73.99147535
    },
    {
        "start station name":"Avenue D & E 8 St",
        "start station latitude":40.72368361,
        "start station longitude":-73.97574813
    },
    {
        "start station name":"Howard St & Centre St",
        "start station latitude":40.71910537,
        "start station longitude":-73.99973337
    },
    {
        "start station name":"Adelphi St & Myrtle Ave",
        "start station latitude":40.69308257,
        "start station longitude":-73.97178913
    },
    {
        "start station name":"Lafayette Ave & Fort Greene Pl",
        "start station latitude":40.68691865,
        "start station longitude":-73.976682
    },
    {
        "start station name":"Washington Ave & Greene Ave",
        "start station latitude":40.68650065,
        "start station longitude":-73.96563307
    },
    {
        "start station name":"Duane St & Greenwich St",
        "start station latitude":40.71748752,
        "start station longitude":-74.0104554
    },
    {
        "start station name":"Concord St & Bridge St",
        "start station latitude":40.69766564,
        "start station longitude":-73.98476437
    },
    {
        "start station name":"Peck Slip & Front St",
        "start station latitude":40.707873,
        "start station longitude":-74.00167
    },
    {
        "start station name":"E 10 St & 5 Ave",
        "start station latitude":40.73331967,
        "start station longitude":-73.99510132
    },
    {
        "start station name":"Grand Army Plaza & Central Park S",
        "start station latitude":40.7643971,
        "start station longitude":-73.97371465
    },
    {
        "start station name":"Kent Ave & S 11 St",
        "start station latitude":40.7076449442,
        "start station longitude":-73.9684152603
    },
    {
        "start station name":"Greenwich Ave & 8 Ave",
        "start station latitude":40.7390169121,
        "start station longitude":-74.0026376103
    },
    {
        "start station name":"Broadway & E 14 St",
        "start station latitude":40.73454567,
        "start station longitude":-73.99074142
    },
    {
        "start station name":"Monroe St & Classon Ave",
        "start station latitude":40.6845683,
        "start station longitude":-73.95881081
    },
    {
        "start station name":"Madison St & Montgomery St",
        "start station latitude":40.713126,
        "start station longitude":-73.984844
    },
    {
        "start station name":"Lafayette St & E 8 St",
        "start station latitude":40.7302066053,
        "start station longitude":-73.9910262823
    },
    {
        "start station name":"Pike St & E Broadway",
        "start station latitude":40.71406667,
        "start station longitude":-73.99293911
    },
    {
        "start station name":"Division St & Bowery",
        "start station latitude":40.71413089,
        "start station longitude":-73.9970468
    },
    {
        "start station name":"E 15 St & 3 Ave",
        "start station latitude":40.734232,
        "start station longitude":-73.986923
    },
    {
        "start station name":"3 Ave & Schermerhorn St",
        "start station latitude":40.68683208,
        "start station longitude":-73.9796772
    },
    {
        "start station name":"E 2 St & Avenue B",
        "start station latitude":40.72217444,
        "start station longitude":-73.98368779
    },
    {
        "start station name":"Avenue D & E 3 St",
        "start station latitude":40.72082834,
        "start station longitude":-73.97793172
    },
    {
        "start station name":"Mercer St & Spring St",
        "start station latitude":40.72362738,
        "start station longitude":-73.99949601
    },
    {
        "start station name":"Broadway & Battery Pl",
        "start station latitude":40.70463334,
        "start station longitude":-74.01361706
    },
    {
        "start station name":"E 58 St & 3 Ave",
        "start station latitude":40.76095756,
        "start station longitude":-73.96724467
    },
    {
        "start station name":"Canal St & Rutgers St",
        "start station latitude":40.71427487,
        "start station longitude":-73.98990025
    },
    {
        "start station name":"St James Pl & Oliver St",
        "start station latitude":40.71307916,
        "start station longitude":-73.99851193
    },
    {
        "start station name":"Murray St & West St",
        "start station latitude":40.7149787,
        "start station longitude":-74.013012
    },
    {
        "start station name":"State St & Smith St",
        "start station latitude":40.68926942,
        "start station longitude":-73.98912867
    },
    {
        "start station name":"Norfolk St & Broome St",
        "start station latitude":40.7172274,
        "start station longitude":-73.98802084
    },
    {
        "start station name":"Allen St & Stanton St",
        "start station latitude":40.722055,
        "start station longitude":-73.989111
    },
    {
        "start station name":"Washington Ave & Park Ave",
        "start station latitude":40.69610226,
        "start station longitude":-73.96751037
    },
    {
        "start station name":"Cadman Plaza West & Montague St",
        "start station latitude":40.69383,
        "start station longitude":-73.990539
    },
    {
        "start station name":"South St & Gouverneur Ln",
        "start station latitude":40.70355377,
        "start station longitude":-74.00670227
    },
    {
        "start station name":"Fulton St & William St",
        "start station latitude":40.70955958,
        "start station longitude":-74.00653609
    },
    {
        "start station name":"E 6 St & Avenue B",
        "start station latitude":40.72453734,
        "start station longitude":-73.98185424
    },
    {
        "start station name":"Fulton St & Broadway",
        "start station latitude":40.711066,
        "start station longitude":-74.009447
    },
    {
        "start station name":"Leonard St & Church St",
        "start station latitude":40.717571,
        "start station longitude":-74.005549
    },
    {
        "start station name":"Cadman Plaza E & Red Cross Pl",
        "start station latitude":40.69991755,
        "start station longitude":-73.98971773
    },
    {
        "start station name":"Lawrence St & Willoughby St",
        "start station latitude":40.69236178,
        "start station longitude":-73.98631746
    },
    {
        "start station name":"DeKalb Ave & Hudson Ave",
        "start station latitude":40.689888,
        "start station longitude":-73.981013
    },
    {
        "start station name":"E 19 St & 3 Ave",
        "start station latitude":40.73624527,
        "start station longitude":-73.98473765
    },
    {
        "start station name":"E 11 St & 1 Ave",
        "start station latitude":40.72953837,
        "start station longitude":-73.98426726
    },
    {
        "start station name":"Vesey Pl & River Terrace",
        "start station latitude":40.7153379,
        "start station longitude":-74.01658354
    },
    {
        "start station name":"Watts St & Greenwich St",
        "start station latitude":40.72405549,
        "start station longitude":-74.00965965
    },
    {
        "start station name":"Reade St & Broadway",
        "start station latitude":40.71450451,
        "start station longitude":-74.00562789
    },
    {
        "start station name":"Pike St & Monroe St",
        "start station latitude":40.71173107,
        "start station longitude":-73.99193043
    },
    {
        "start station name":"Cherry St",
        "start station latitude":40.71219906,
        "start station longitude":-73.97948148
    },
    {
        "start station name":"W 20 St & 7 Ave",
        "start station latitude":40.74238787,
        "start station longitude":-73.99726235
    },
    {
        "start station name":"Washington Pl & Broadway",
        "start station latitude":40.72903917,
        "start station longitude":-73.99404649
    },
    {
        "start station name":"Sullivan St & Washington Sq",
        "start station latitude":40.73047747,
        "start station longitude":-73.99906065
    },
    {
        "start station name":"Old Slip & Front St",
        "start station latitude":40.7037992,
        "start station longitude":-74.00838676
    },
    {
        "start station name":"Avenue D & E 12 St",
        "start station latitude":40.72580614,
        "start station longitude":-73.97422494
    },
    {
        "start station name":"Madison St & Clinton St",
        "start station latitude":40.71269042,
        "start station longitude":-73.98776323
    },
    {
        "start station name":"Stanton St & Mangin St",
        "start station latitude":40.71782143,
        "start station longitude":-73.97628939
    },
    {
        "start station name":"Columbia St & Rivington St",
        "start station latitude":40.71739973,
        "start station longitude":-73.98016555
    },
    {
        "start station name":"Clinton Ave & Flushing Ave",
        "start station latitude":40.69794,
        "start station longitude":-73.96986848
    },
    {
        "start station name":"Monroe St & Bedford Ave",
        "start station latitude":40.6851443,
        "start station longitude":-73.95380904
    },
    {
        "start station name":"Bank St & Hudson St",
        "start station latitude":40.73652889,
        "start station longitude":-74.00618026
    },
    {
        "start station name":"Greenwich St & W Houston St",
        "start station latitude":40.728846,
        "start station longitude":-74.008591
    },
    {
        "start station name":"Rivington St & Ridge St",
        "start station latitude":40.71850211,
        "start station longitude":-73.98329859
    },
    {
        "start station name":"Clinton St & Grand St",
        "start station latitude":40.71559509,
        "start station longitude":-73.9870295
    },
    {
        "start station name":"Front St & Maiden Ln",
        "start station latitude":40.70530954,
        "start station longitude":-74.00612572
    },
    {
        "start station name":"S Portland Ave & Hanson Pl",
        "start station latitude":40.68539567,
        "start station longitude":-73.97431458
    },
    {
        "start station name":"Emerson Pl & Myrtle Ave",
        "start station latitude":40.69363137,
        "start station longitude":-73.96223558
    },
    {
        "start station name":"Bayard St & Baxter St",
        "start station latitude":40.71602118,
        "start station longitude":-73.99974372
    },
    {
        "start station name":"Bialystoker Pl & Delancey St",
        "start station latitude":40.71622644,
        "start station longitude":-73.98261206
    },
    {
        "start station name":"Christopher St & Greenwich St",
        "start station latitude":40.73291553,
        "start station longitude":-74.00711384
    },
    {
        "start station name":"E 47 St & Park Ave",
        "start station latitude":40.75510267,
        "start station longitude":-73.97498696
    },
    {
        "start station name":"William St & Pine St",
        "start station latitude":40.70717936,
        "start station longitude":-74.00887308
    },
    {
        "start station name":"Allen St & Hester St",
        "start station latitude":40.71605866,
        "start station longitude":-73.99190759
    },
    {
        "start station name":"Broadway & W 37 St",
        "start station latitude":40.75172632,
        "start station longitude":-73.98753523
    },
    {
        "start station name":"West Thames St",
        "start station latitude":40.70834698,
        "start station longitude":-74.01713445
    },
    {
        "start station name":"Lafayette Ave & Classon Ave",
        "start station latitude":40.68900443,
        "start station longitude":-73.96023854
    },
    {
        "start station name":"Fulton St & Grand Ave",
        "start station latitude":40.68223166,
        "start station longitude":-73.9614583
    },
    {
        "start station name":"Clinton Ave & Myrtle Ave",
        "start station latitude":40.693261,
        "start station longitude":-73.968896
    },
    {
        "start station name":"Carmine St & 6 Ave",
        "start station latitude":40.73038599,
        "start station longitude":-74.00214988
    },
    {
        "start station name":"Washington Pl & 6 Ave",
        "start station latitude":40.73224119,
        "start station longitude":-74.00026394
    },
    {
        "start station name":"Franklin Ave & Myrtle Ave",
        "start station latitude":40.6945460872,
        "start station longitude":-73.9580136538
    },
    {
        "start station name":"Willoughby Ave & Walworth St",
        "start station latitude":40.69331716,
        "start station longitude":-73.95381995
    },
    {
        "start station name":"John St & William St",
        "start station latitude":40.70862144,
        "start station longitude":-74.00722156
    },
    {
        "start station name":"6 Ave & Canal St",
        "start station latitude":40.72243797,
        "start station longitude":-74.00566443
    },
    {
        "start station name":"W 31 St & 7 Ave",
        "start station latitude":40.749156,
        "start station longitude":-73.9916
    },
    {
        "start station name":"W 4 St & 7 Ave S",
        "start station latitude":40.73401143,
        "start station longitude":-74.00293877
    },
    {
        "start station name":"University Pl & E 14 St",
        "start station latitude":40.73492695,
        "start station longitude":-73.99200509
    },
    {
        "start station name":"Greenwich Ave & Charles St",
        "start station latitude":40.735238,
        "start station longitude":-74.000271
    },
    {
        "start station name":"E 55 St & 2 Ave",
        "start station latitude":40.75797322,
        "start station longitude":-73.96603308
    },
    {
        "start station name":"Centre St & Worth St",
        "start station latitude":40.71494807,
        "start station longitude":-74.00234482
    },
    {
        "start station name":"Centre St & Chambers St",
        "start station latitude":40.71273266,
        "start station longitude":-74.0046073
    },
    {
        "start station name":"W 26 St & 10 Ave",
        "start station latitude":40.749717753,
        "start station longitude":-74.002950346
    },
    {
        "start station name":"Broadway & Berry St",
        "start station latitude":40.71044554,
        "start station longitude":-73.96525063
    },
    {
        "start station name":"Duffield St & Willoughby St",
        "start station latitude":40.69221589,
        "start station longitude":-73.9842844
    },
    {
        "start station name":"Clark St & Henry St",
        "start station latitude":40.69760127,
        "start station longitude":-73.99344559
    },
    {
        "start station name":"Jay St & Tech Pl",
        "start station latitude":40.695065,
        "start station longitude":-73.987167
    },
    {
        "start station name":"E 5 St & Avenue C",
        "start station latitude":40.72299208,
        "start station longitude":-73.97995466
    },
    {
        "start station name":"E 9 St & Avenue C",
        "start station latitude":40.72521311,
        "start station longitude":-73.97768752
    },
    {
        "start station name":"Lefferts Pl & Franklin Ave",
        "start station latitude":40.680342423,
        "start station longitude":-73.9557689392
    },
    {
        "start station name":"Fulton St & Clermont Ave",
        "start station latitude":40.68415748,
        "start station longitude":-73.96922273
    },
    {
        "start station name":"Atlantic Ave & Furman St",
        "start station latitude":40.69165183,
        "start station longitude":-73.9999786
    },
    {
        "start station name":"Lafayette Ave & St James Pl",
        "start station latitude":40.68851534,
        "start station longitude":-73.9647628
    },
    {
        "start station name":"Pitt St & Stanton St",
        "start station latitude":40.71926081,
        "start station longitude":-73.98178024
    },
    {
        "start station name":"Allen St & Rivington St",
        "start station latitude":40.72019576,
        "start station longitude":-73.98997825
    },
    {
        "start station name":"Broadway & E 22 St",
        "start station latitude":40.7403432,
        "start station longitude":-73.98955109
    },
    {
        "start station name":"E 2 St & 2 Ave",
        "start station latitude":40.72502876,
        "start station longitude":-73.99069656
    },
    {
        "start station name":"Washington St & Gansevoort St",
        "start station latitude":40.739323,
        "start station longitude":-74.008119
    },
    {
        "start station name":"Hicks St & Montague St",
        "start station latitude":40.69512845,
        "start station longitude":-73.99595065
    },
    {
        "start station name":"Market St & Cherry St",
        "start station latitude":40.71076228,
        "start station longitude":-73.99400398
    },
    {
        "start station name":"Suffolk St & Stanton St",
        "start station latitude":40.72066442,
        "start station longitude":-73.98517977
    },
    {
        "start station name":"E 6 St & Avenue D",
        "start station latitude":40.72228087,
        "start station longitude":-73.97668709
    },
    {
        "start station name":"Forsyth St & Canal St",
        "start station latitude":40.7158155,
        "start station longitude":-73.99422366
    },
    {
        "start station name":"Pearl St & Anchorage Pl",
        "start station latitude":40.70281858,
        "start station longitude":-73.98765762
    },
    {
        "start station name":"Pearl St & Hanover Square",
        "start station latitude":40.7047177,
        "start station longitude":-74.00926027
    },
    {
        "start station name":"Cumberland St & Lafayette Ave",
        "start station latitude":40.68753406,
        "start station longitude":-73.97265183
    },
    {
        "start station name":"Barclay St & Church St",
        "start station latitude":40.71291224,
        "start station longitude":-74.01020234
    },
    {
        "start station name":"Front St & Gold St",
        "start station latitude":40.70224,
        "start station longitude":-73.982578
    },
    {
        "start station name":"Carlton Ave & Park Ave",
        "start station latitude":40.69580705,
        "start station longitude":-73.97355569
    },
    {
        "start station name":"Clermont Ave & Lafayette Ave",
        "start station latitude":40.68764484,
        "start station longitude":-73.96968902
    },
    {
        "start station name":"Clermont Ave & Park Ave",
        "start station latitude":40.69573398,
        "start station longitude":-73.97129668
    },
    {
        "start station name":"W 59 St & 10 Ave",
        "start station latitude":40.770513,
        "start station longitude":-73.988038
    },
    {
        "start station name":"W 54 St & 9 Ave",
        "start station latitude":40.76584941,
        "start station longitude":-73.98690506
    },
    {
        "start station name":"West St & Chambers St",
        "start station latitude":40.71754834,
        "start station longitude":-74.01322069
    },
    {
        "start station name":"Bus Slip & State St",
        "start station latitude":40.701907,
        "start station longitude":-74.013942
    },
    {
        "start station name":"E 7 St & Avenue A",
        "start station latitude":40.72621788,
        "start station longitude":-73.98379855
    },
    {
        "start station name":"9 Ave & W 18 St",
        "start station latitude":40.74317449,
        "start station longitude":-74.00366443
    },
    {
        "start station name":"W 21 St & 6 Ave",
        "start station latitude":40.74173969,
        "start station longitude":-73.99415556
    },
    {
        "start station name":"Hancock St & Bedford Ave",
        "start station latitude":40.68216564,
        "start station longitude":-73.95399026
    },
    {
        "start station name":"Macon St & Nostrand Ave",
        "start station latitude":40.6809833854,
        "start station longitude":-73.9500479759
    },
    {
        "start station name":"St Marks Pl & 1 Ave",
        "start station latitude":40.72779126,
        "start station longitude":-73.98564945
    },
    {
        "start station name":"E 4 St & 2 Ave",
        "start station latitude":40.7262807,
        "start station longitude":-73.98978041
    },
    {
        "start station name":"E 45 St & 3 Ave",
        "start station latitude":40.75255434,
        "start station longitude":-73.97282625
    },
    {
        "start station name":"E 52 St & 2 Ave",
        "start station latitude":40.756014,
        "start station longitude":-73.967416
    },
    {
        "start station name":"W 27 St & 7 Ave",
        "start station latitude":40.746647,
        "start station longitude":-73.993915
    },
    {
        "start station name":"Bedford Ave & S 9 St",
        "start station latitude":40.70853074,
        "start station longitude":-73.96408963
    },
    {
        "start station name":"E 10 St & Avenue A",
        "start station latitude":40.72740794,
        "start station longitude":-73.98142006
    },
    {
        "start station name":"W 24 St & 7 Ave",
        "start station latitude":40.74487634,
        "start station longitude":-73.99529885
    },
    {
        "start station name":"8 Ave & W 52 St",
        "start station latitude":40.76370739,
        "start station longitude":-73.9851615
    },
    {
        "start station name":"W 37 St & 10 Ave",
        "start station latitude":40.75660359,
        "start station longitude":-73.9979009
    },
    {
        "start station name":"W 49 St & 8 Ave",
        "start station latitude":40.76227205,
        "start station longitude":-73.98788205
    },
    {
        "start station name":"W 22 St & 8 Ave",
        "start station latitude":40.74475148,
        "start station longitude":-73.99915362
    },
    {
        "start station name":"E 51 St & 1 Ave",
        "start station latitude":40.75455731,
        "start station longitude":-73.96592976
    },
    {
        "start station name":"1 Ave & E 44 St",
        "start station latitude":40.75001986,
        "start station longitude":-73.96905301
    },
    {
        "start station name":"E 53 St & Madison Ave",
        "start station latitude":40.7597108,
        "start station longitude":-73.97402311
    },
    {
        "start station name":"11 Ave & W 27 St",
        "start station latitude":40.751396,
        "start station longitude":-74.005226
    },
    {
        "start station name":"W 20 St & 11 Ave",
        "start station latitude":40.746745,
        "start station longitude":-74.007756
    },
    {
        "start station name":"S 4 St & Wythe Ave",
        "start station latitude":40.71285887,
        "start station longitude":-73.96590294
    },
    {
        "start station name":"E 20 St & 2 Ave",
        "start station latitude":40.73587678,
        "start station longitude":-73.98205027
    },
    {
        "start station name":"W 22 St & 10 Ave",
        "start station latitude":40.74691959,
        "start station longitude":-74.00451887
    },
    {
        "start station name":"Broadway & W 41 St",
        "start station latitude":40.75513557,
        "start station longitude":-73.98658032
    },
    {
        "start station name":"W 25 St & 6 Ave",
        "start station latitude":40.74395411,
        "start station longitude":-73.99144871
    },
    {
        "start station name":"Dean St & 4 Ave",
        "start station latitude":40.68312489,
        "start station longitude":-73.97895137
    },
    {
        "start station name":"Broadway & W 56 St",
        "start station latitude":40.7652654,
        "start station longitude":-73.98192338
    },
    {
        "start station name":"Broadway & W 53 St",
        "start station latitude":40.76344058,
        "start station longitude":-73.98268129
    },
    {
        "start station name":"W 20 St & 8 Ave",
        "start station latitude":40.74345335,
        "start station longitude":-74.00004031
    },
    {
        "start station name":"Grand St & Havemeyer St",
        "start station latitude":40.71286844,
        "start station longitude":-73.95698119
    },
    {
        "start station name":"E 32 St & Park Ave",
        "start station latitude":40.7457121,
        "start station longitude":-73.98194829
    },
    {
        "start station name":"Rivington St & Chrystie St",
        "start station latitude":40.72110063,
        "start station longitude":-73.9919254
    },
    {
        "start station name":"5 Ave & E 29 St",
        "start station latitude":40.7451677,
        "start station longitude":-73.98683077
    },
    {
        "start station name":"E 31 St & 3 Ave",
        "start station latitude":40.74394314,
        "start station longitude":-73.97966069
    },
    {
        "start station name":"W 41 St & 8 Ave",
        "start station latitude":40.75640548,
        "start station longitude":-73.9900262
    },
    {
        "start station name":"11 Ave & W 41 St",
        "start station latitude":40.76030096,
        "start station longitude":-73.99884222
    },
    {
        "start station name":"9 Ave & W 45 St",
        "start station latitude":40.76019252,
        "start station longitude":-73.9912551
    },
    {
        "start station name":"W 53 St & 10 Ave",
        "start station latitude":40.76669671,
        "start station longitude":-73.99061728
    },
    {
        "start station name":"S 3 St & Bedford Ave",
        "start station latitude":40.71260486,
        "start station longitude":-73.96264403
    },
    {
        "start station name":"W 15 St & 7 Ave",
        "start station latitude":40.73935542,
        "start station longitude":-73.99931783
    },
    {
        "start station name":"E 12 St & 3 Ave",
        "start station latitude":40.73223272,
        "start station longitude":-73.98889957
    },
    {
        "start station name":"W 44 St & 5 Ave",
        "start station latitude":40.75500254,
        "start station longitude":-73.98014437
    },
    {
        "start station name":"W 37 St & 5 Ave",
        "start station latitude":40.75038009,
        "start station longitude":-73.98338988
    },
    {
        "start station name":"Broadway & W 29 St",
        "start station latitude":40.7462009,
        "start station longitude":-73.98855723
    },
    {
        "start station name":"E 20 St & FDR Drive",
        "start station latitude":40.73314259,
        "start station longitude":-73.97573881
    },
    {
        "start station name":"10 Ave & W 28 St",
        "start station latitude":40.75066386,
        "start station longitude":-74.00176802
    },
    {
        "start station name":"8 Ave & W 33 St",
        "start station latitude":40.751551,
        "start station longitude":-73.993934
    },
    {
        "start station name":"E 24 St & Park Ave S",
        "start station latitude":40.74096374,
        "start station longitude":-73.98602213
    },
    {
        "start station name":"W 33 St & 7 Ave",
        "start station latitude":40.75019995,
        "start station longitude":-73.99093085
    },
    {
        "start station name":"W 45 St & 6 Ave",
        "start station latitude":40.7568001,
        "start station longitude":-73.98291153
    },
    {
        "start station name":"W 26 St & 8 Ave",
        "start station latitude":40.74734825,
        "start station longitude":-73.99723551
    },
    {
        "start station name":"W 47 St & 10 Ave",
        "start station latitude":40.76269882,
        "start station longitude":-73.99301222
    },
    {
        "start station name":"E 16 St & 5 Ave",
        "start station latitude":40.73726186,
        "start station longitude":-73.99238967
    },
    {
        "start station name":"E 17 St & Broadway",
        "start station latitude":40.73704984,
        "start station longitude":-73.99009296
    },
    {
        "start station name":"Broadway & W 60 St",
        "start station latitude":40.76915505,
        "start station longitude":-73.98191841
    },
    {
        "start station name":"Broadway & W 51 St",
        "start station latitude":40.76228826,
        "start station longitude":-73.98336183
    },
    {
        "start station name":"FDR Drive & E 35 St",
        "start station latitude":40.744219,
        "start station longitude":-73.97121214
    },
    {
        "start station name":"Henry St & Grand St",
        "start station latitude":40.714215,
        "start station longitude":-73.981346
    },
    {
        "start station name":"E 20 St & Park Ave",
        "start station latitude":40.73827428,
        "start station longitude":-73.98751968
    },
    {
        "start station name":"1 Ave & E 16 St",
        "start station latitude":40.73221853,
        "start station longitude":-73.98165557
    },
    {
        "start station name":"E 25 St & 2 Ave",
        "start station latitude":40.73912601,
        "start station longitude":-73.97973776
    },
    {
        "start station name":"W 46 St & 11 Ave",
        "start station latitude":40.76341379,
        "start station longitude":-73.99667444
    },
    {
        "start station name":"W 56 St & 10 Ave",
        "start station latitude":40.768254,
        "start station longitude":-73.988639
    },
    {
        "start station name":"12 Ave & W 40 St",
        "start station latitude":40.76087502,
        "start station longitude":-74.00277668
    },
    {
        "start station name":"W 43 St & 10 Ave",
        "start station latitude":40.76009437,
        "start station longitude":-73.99461843
    },
    {
        "start station name":"E 47 St & 1 Ave",
        "start station latitude":40.75206862,
        "start station longitude":-73.96784384
    },
    {
        "start station name":"Pershing Square South",
        "start station latitude":40.751581,
        "start station longitude":-73.97791
    },
    {
        "start station name":"E 39 St & 2 Ave",
        "start station latitude":40.74780373,
        "start station longitude":-73.9734419
    },
    {
        "start station name":"Pershing Square North",
        "start station latitude":40.751873,
        "start station longitude":-73.977706
    },
    {
        "start station name":"W 52 St & 5 Ave",
        "start station latitude":40.75992262,
        "start station longitude":-73.97648516
    },
    {
        "start station name":"E 51 St & Lexington Ave",
        "start station latitude":40.75714758,
        "start station longitude":-73.97207836
    },
    {
        "start station name":"W 38 St & 8 Ave",
        "start station latitude":40.75466591,
        "start station longitude":-73.99138152
    },
    {
        "start station name":"W 43 St & 6 Ave",
        "start station latitude":40.75527307,
        "start station longitude":-73.98316936
    },
    {
        "start station name":"W 34 St & 11 Ave",
        "start station latitude":40.75594159,
        "start station longitude":-74.0021163
    },
    {
        "start station name":"E 33 St & 5 Ave",
        "start station latitude":40.74765947,
        "start station longitude":-73.98490707
    },
    {
        "start station name":"2 Ave & E 31 St",
        "start station latitude":40.74290902,
        "start station longitude":-73.97706058
    },
    {
        "start station name":"W 42 St & 8 Ave",
        "start station latitude":40.7575699,
        "start station longitude":-73.99098507
    },
    {
        "start station name":"11 Ave & W 59 St",
        "start station latitude":40.7714967105,
        "start station longitude":-73.9904603362
    },
    {
        "start station name":"Forsyth St & Broome St",
        "start station latitude":40.71893904,
        "start station longitude":-73.99266288
    },
    {
        "start station name":"S 5 Pl & S 5 St",
        "start station latitude":40.710451,
        "start station longitude":-73.960876
    },
    {
        "start station name":"Broadway & W 38 St",
        "start station latitude":40.75299641,
        "start station longitude":-73.98721619
    },
    {
        "start station name":"Water - Whitehall Plaza",
        "start station latitude":40.70255065,
        "start station longitude":-74.0127234
    },
    {
        "start station name":"1 Ave & E 30 St",
        "start station latitude":40.74144387,
        "start station longitude":-73.97536082
    },
    {
        "start station name":"Metropolitan Ave & Bedford Ave",
        "start station latitude":40.71534825,
        "start station longitude":-73.96024116
    },
    {
        "start station name":"Lexington Ave & E 29 St",
        "start station latitude":40.7431155538,
        "start station longitude":-73.9821535349
    },
    {
        "start station name":"E 23 St & 1 Ave",
        "start station latitude":40.736502,
        "start station longitude":-73.97809472
    },
    {
        "start station name":"E 30 St & Park Ave S",
        "start station latitude":40.74444921,
        "start station longitude":-73.98303529
    },
    {
        "start station name":"Front St & Washington St",
        "start station latitude":40.70255088,
        "start station longitude":-73.98940236
    },
    {
        "start station name":"Wythe Ave & Metropolitan Ave",
        "start station latitude":40.716887,
        "start station longitude":-73.963198
    },
    {
        "start station name":"1 Ave & E 18 St",
        "start station latitude":40.733812192,
        "start station longitude":-73.9805442095
    },
    {
        "start station name":"Railroad Ave & Kay Ave",
        "start station latitude":40.70531194,
        "start station longitude":-73.97100056
    },
    {
        "start station name":"Central Park S & 6 Ave",
        "start station latitude":40.76590936,
        "start station longitude":-73.97634151
    },
    {
        "start station name":"Little West St & 1 Pl",
        "start station latitude":40.70569254,
        "start station longitude":-74.01677685
    },
    {
        "start station name":"Catherine St & Monroe St",
        "start station latitude":40.71117444,
        "start station longitude":-73.99682619
    },
    {
        "start station name":"E 27 St & 1 Ave",
        "start station latitude":40.739445,
        "start station longitude":-73.976806
    },
    {
        "start station name":"E 43 St & 2 Ave",
        "start station latitude":40.75022392,
        "start station longitude":-73.97121414
    },
    {
        "start station name":"W 45 St & 8 Ave",
        "start station latitude":40.75929124,
        "start station longitude":-73.98859651
    },
    {
        "start station name":"E 60 St & York Ave",
        "start station latitude":40.759107,
        "start station longitude":-73.959223
    },
    {
        "start station name":"E 55 St & Lexington Ave",
        "start station latitude":40.75968085,
        "start station longitude":-73.97031366
    },
    {
        "start station name":"South End Ave & Liberty St",
        "start station latitude":40.711512,
        "start station longitude":-74.015756
    },
    {
        "start station name":"Kent Ave & N 7 St",
        "start station latitude":40.720367753,
        "start station longitude":-73.9616507292
    },
    {
        "start station name":"Kingston Ave & Herkimer St",
        "start station latitude":40.67890679,
        "start station longitude":-73.94142771
    },
    {
        "start station name":"Fulton St & Utica Ave",
        "start station latitude":40.6794268,
        "start station longitude":-73.9298911
    },
    {
        "start station name":"Lewis Ave & Decatur St",
        "start station latitude":40.6814598,
        "start station longitude":-73.934903
    },
    {
        "start station name":"Albany Ave & Fulton St",
        "start station latitude":40.6800105,
        "start station longitude":-73.938475
    },
    {
        "start station name":"Marcus Garvey Blvd & Macon St",
        "start station latitude":40.682601,
        "start station longitude":-73.938037
    },
    {
        "start station name":"Halsey St & Tompkins Ave",
        "start station latitude":40.6823687,
        "start station longitude":-73.944118
    },
    {
        "start station name":"Putnam Ave & Nostrand Ave",
        "start station latitude":40.68402,
        "start station longitude":-73.94977
    },
    {
        "start station name":"Cambridge Pl & Gates Ave",
        "start station latitude":40.68488,
        "start station longitude":-73.96304
    },
    {
        "start station name":"Putnam Ave & Throop Ave",
        "start station latitude":40.6851532,
        "start station longitude":-73.94111
    },
    {
        "start station name":"Lewis Ave & Madison St",
        "start station latitude":40.686312,
        "start station longitude":-73.935775
    },
    {
        "start station name":"Marcy Ave & Lafayette Ave",
        "start station latitude":40.6900815,
        "start station longitude":-73.947915
    },
    {
        "start station name":"Greene Ave & Throop Ave",
        "start station latitude":40.6894932,
        "start station longitude":-73.942061
    },
    {
        "start station name":"Greene Ave & Nostrand Ave",
        "start station latitude":40.6883337,
        "start station longitude":-73.950916
    },
    {
        "start station name":"Kosciuszko St & Nostrand Ave",
        "start station latitude":40.69072549,
        "start station longitude":-73.95133465
    },
    {
        "start station name":"Kosciuszko St & Tompkins Ave",
        "start station latitude":40.69128258,
        "start station longitude":-73.9452416
    },
    {
        "start station name":"Lewis Ave & Kosciuszko St",
        "start station latitude":40.69237074,
        "start station longitude":-73.93705428
    },
    {
        "start station name":"Pulaski St & Marcus Garvey Blvd",
        "start station latitude":40.6933982,
        "start station longitude":-73.939877
    },
    {
        "start station name":"Willoughby Ave & Tompkins Ave",
        "start station latitude":40.69425403,
        "start station longitude":-73.94626915
    },
    {
        "start station name":"Throop Ave & Myrtle Ave",
        "start station latitude":40.69622937,
        "start station longitude":-73.94371094
    },
    {
        "start station name":"Myrtle Ave & Marcy Ave",
        "start station latitude":40.69539817,
        "start station longitude":-73.94954908
    },
    {
        "start station name":"Nostrand Ave & Myrtle Ave",
        "start station latitude":40.69527008,
        "start station longitude":-73.95238108
    },
    {
        "start station name":"Myrtle Ave & Lewis Ave",
        "start station latitude":40.69681963,
        "start station longitude":-73.93756926
    },
    {
        "start station name":"Union Ave & Wallabout St",
        "start station latitude":40.70029511,
        "start station longitude":-73.95032283
    },
    {
        "start station name":"Tompkins Ave & Hopkins St",
        "start station latitude":40.69957608,
        "start station longitude":-73.94708417
    },
    {
        "start station name":"Broadway & Whipple St",
        "start station latitude":40.7016657,
        "start station longitude":-73.9437303
    },
    {
        "start station name":"Humboldt St & Varet St",
        "start station latitude":40.7031724,
        "start station longitude":-73.940636
    },
    {
        "start station name":"Lorimer St & Broadway",
        "start station latitude":40.70411791,
        "start station longitude":-73.94818595
    },
    {
        "start station name":"McKibbin St & Manhattan Ave",
        "start station latitude":40.70510918,
        "start station longitude":-73.94407279
    },
    {
        "start station name":"Boerum St & Broadway",
        "start station latitude":40.70538077,
        "start station longitude":-73.94976519
    },
    {
        "start station name":"Leonard St & Boerum St",
        "start station latitude":40.70583339,
        "start station longitude":-73.94644578
    },
    {
        "start station name":"Montrose Ave & Bushwick Ave",
        "start station latitude":40.70767788,
        "start station longitude":-73.94016171
    },
    {
        "start station name":"Division Ave & Marcy Ave",
        "start station latitude":40.70708701,
        "start station longitude":-73.95796783
    },
    {
        "start station name":"Scholes St & Manhattan Ave",
        "start station latitude":40.70870368,
        "start station longitude":-73.9448625
    },
    {
        "start station name":"Stagg St & Union Ave",
        "start station latitude":40.70877084,
        "start station longitude":-73.95095259
    },
    {
        "start station name":"Broadway & Roebling St",
        "start station latitude":40.7092482628,
        "start station longitude":-73.9606314898
    },
    {
        "start station name":"S 4 St & Rodney St",
        "start station latitude":40.70934,
        "start station longitude":-73.95608
    },
    {
        "start station name":"Graham Ave & Grand St",
        "start station latitude":40.711863,
        "start station longitude":-73.944024
    },
    {
        "start station name":"Hope St & Union Ave",
        "start station latitude":40.71167351,
        "start station longitude":-73.95141312
    },
    {
        "start station name":"Bushwick Ave & Powers St",
        "start station latitude":40.71247661,
        "start station longitude":-73.94100005
    },
    {
        "start station name":"Roebling St & N 4 St",
        "start station latitude":40.71469,
        "start station longitude":-73.95739
    },
    {
        "start station name":"Graham Ave & Conselyea St",
        "start station latitude":40.715143,
        "start station longitude":-73.944507
    },
    {
        "start station name":"Metropolitan Ave & Meeker Ave",
        "start station latitude":40.71413311,
        "start station longitude":-73.95234386
    },
    {
        "start station name":"Union Ave & Jackson St",
        "start station latitude":40.7160751,
        "start station longitude":-73.952029
    },
    {
        "start station name":"Berry St & N 8 St",
        "start station latitude":40.7190095,
        "start station longitude":-73.95852515
    },
    {
        "start station name":"N 6 St & Bedford Ave",
        "start station latitude":40.71745169,
        "start station longitude":-73.95850939
    },
    {
        "start station name":"Graham Ave & Withers St",
        "start station latitude":40.7169811,
        "start station longitude":-73.94485918
    },
    {
        "start station name":"Graham Ave & Herbert St",
        "start station latitude":40.71929301,
        "start station longitude":-73.94500379
    },
    {
        "start station name":"Union Ave & N 12 St",
        "start station latitude":40.71924,
        "start station longitude":-73.95242
    },
    {
        "start station name":"Nassau Ave & Newell St",
        "start station latitude":40.7248125644,
        "start station longitude":-73.9475262165
    },
    {
        "start station name":"N 12 St & Bedford Ave",
        "start station latitude":40.72079821,
        "start station longitude":-73.95484712
    },
    {
        "start station name":"Driggs Ave & Lorimer St",
        "start station latitude":40.72179134,
        "start station longitude":-73.9504154
    },
    {
        "start station name":"N 15 St & Wythe Ave",
        "start station latitude":40.724055,
        "start station longitude":-73.955736
    },
    {
        "start station name":"Driggs Ave & N Henry St",
        "start station latitude":40.72325,
        "start station longitude":-73.94308
    },
    {
        "start station name":"Bedford Ave & Nassau Ave",
        "start station latitude":40.72311651,
        "start station longitude":-73.95212324
    },
    {
        "start station name":"Nassau Ave & Russell St",
        "start station latitude":40.72557,
        "start station longitude":-73.94434
    },
    {
        "start station name":"Banker St & Meserole Ave",
        "start station latitude":40.72606,
        "start station longitude":-73.95621
    },
    {
        "start station name":"Meserole Ave & Manhattan Ave",
        "start station latitude":40.72708584,
        "start station longitude":-73.95299117
    },
    {
        "start station name":"Milton St & Franklin St",
        "start station latitude":40.72906,
        "start station longitude":-73.95779
    },
    {
        "start station name":"Greenpoint Ave & Manhattan Ave",
        "start station latitude":40.73026,
        "start station longitude":-73.95394
    },
    {
        "start station name":"India St & Manhattan Ave",
        "start station latitude":40.73232194,
        "start station longitude":-73.9550858
    },
    {
        "start station name":"Huron St & Franklin St",
        "start station latitude":40.73266,
        "start station longitude":-73.95826
    },
    {
        "start station name":"Franklin St & Dupont St",
        "start station latitude":40.73564,
        "start station longitude":-73.95866
    },
    {
        "start station name":"McGuinness Blvd & Eagle St",
        "start station latitude":40.73555,
        "start station longitude":-73.95284
    },
    {
        "start station name":"Vernon Blvd & 50 Ave",
        "start station latitude":40.74232744,
        "start station longitude":-73.95411749
    },
    {
        "start station name":"Jackson Ave & 46 Rd",
        "start station latitude":40.74524768,
        "start station longitude":-73.94733276
    },
    {
        "start station name":"48 Ave & 5 St",
        "start station latitude":40.7443632871,
        "start station longitude":-73.955873251
    },
    {
        "start station name":"31 St & Thomson Ave",
        "start station latitude":40.74469738,
        "start station longitude":-73.93540375
    },
    {
        "start station name":"46 Ave & 5 St",
        "start station latitude":40.74731,
        "start station longitude":-73.95451
    },
    {
        "start station name":"45 Rd & 11 St",
        "start station latitude":40.74708586,
        "start station longitude":-73.94977234
    },
    {
        "start station name":"44 Dr & Jackson Ave",
        "start station latitude":40.74718234,
        "start station longitude":-73.9432635
    },
    {
        "start station name":"9 St & 44 Rd",
        "start station latitude":40.74966,
        "start station longitude":-73.9521
    },
    {
        "start station name":"21 St & 43 Ave",
        "start station latitude":40.75052534,
        "start station longitude":-73.94594845
    },
    {
        "start station name":"Queens Plaza North & Crescent St",
        "start station latitude":40.75110165,
        "start station longitude":-73.94073717
    },
    {
        "start station name":"21 St & Queens Plaza North",
        "start station latitude":40.75325964,
        "start station longitude":-73.94335788
    },
    {
        "start station name":"E 68 St & 3 Ave",
        "start station latitude":40.7671284035,
        "start station longitude":-73.9622461796
    },
    {
        "start station name":"E 59 St & Madison Ave",
        "start station latitude":40.76350532,
        "start station longitude":-73.97109243
    },
    {
        "start station name":"3 Ave & E 62 St",
        "start station latitude":40.76312584,
        "start station longitude":-73.96526895
    },
    {
        "start station name":"E 75 St & 3 Ave",
        "start station latitude":40.77112927,
        "start station longitude":-73.95772297
    },
    {
        "start station name":"5 Ave & E 63 St",
        "start station latitude":40.766368,
        "start station longitude":-73.971518
    },
    {
        "start station name":"5 Ave & E 73 St",
        "start station latitude":40.77282817,
        "start station longitude":-73.96685276
    },
    {
        "start station name":"E 72 St & Park Ave",
        "start station latitude":40.7711828754,
        "start station longitude":-73.9640942216
    },
    {
        "start station name":"1 Ave & E 78 St",
        "start station latitude":40.77140426,
        "start station longitude":-73.9535166
    },
    {
        "start station name":"1 Ave & E 68 St",
        "start station latitude":40.76500525,
        "start station longitude":-73.95818491
    },
    {
        "start station name":"1 Ave & E 62 St",
        "start station latitude":40.7612274,
        "start station longitude":-73.96094022
    },
    {
        "start station name":"5 Ave & E 78 St",
        "start station latitude":40.7763214218,
        "start station longitude":-73.9642739296
    },
    {
        "start station name":"E 81 St & Park Ave",
        "start station latitude":40.77677702,
        "start station longitude":-73.9590097
    },
    {
        "start station name":"E 84 St & Park Ave",
        "start station latitude":40.77862688,
        "start station longitude":-73.95772073
    },
    {
        "start station name":"E 81 St & 3 Ave",
        "start station latitude":40.77573034,
        "start station longitude":-73.9567526
    },
    {
        "start station name":"E 84 St & 1 Ave",
        "start station latitude":40.77565541,
        "start station longitude":-73.95068615
    },
    {
        "start station name":"E 85 St & York Ave",
        "start station latitude":40.77536905,
        "start station longitude":-73.94803392
    },
    {
        "start station name":"E 81 St & York Ave",
        "start station latitude":40.7728384,
        "start station longitude":-73.94989233
    },
    {
        "start station name":"3 Ave & E 71 St",
        "start station latitude":40.76873687,
        "start station longitude":-73.96119945
    },
    {
        "start station name":"E 77 St & 3 Ave",
        "start station latitude":40.77314236,
        "start station longitude":-73.95856158
    },
    {
        "start station name":"Lexington Ave & E 63 St",
        "start station latitude":40.76440023,
        "start station longitude":-73.96648977
    },
    {
        "start station name":"E 72 St & York Ave",
        "start station latitude":40.76663814,
        "start station longitude":-73.95348296
    },
    {
        "start station name":"East End Ave & E 86 St",
        "start station latitude":40.77518615,
        "start station longitude":-73.94446054
    },
    {
        "start station name":"W 63 St & Broadway",
        "start station latitude":40.77163851,
        "start station longitude":-73.98261428
    },
    {
        "start station name":"W 67 St & Broadway",
        "start station latitude":40.77492513,
        "start station longitude":-73.98266566
    },
    {
        "start station name":"Central Park West & W 76 St",
        "start station latitude":40.77896784,
        "start station longitude":-73.97374737
    },
    {
        "start station name":"W 76 St & Columbus Ave",
        "start station latitude":40.7801839724,
        "start station longitude":-73.9772853255
    },
    {
        "start station name":"W 78 St & Broadway",
        "start station latitude":40.78339981,
        "start station longitude":-73.98093133
    },
    {
        "start station name":"Central Park West & W 68 St",
        "start station latitude":40.7734066,
        "start station longitude":-73.97782542
    },
    {
        "start station name":"Columbus Ave & W 72 St",
        "start station latitude":40.7770575,
        "start station longitude":-73.97898475
    },
    {
        "start station name":"Central Park West & W 72 St",
        "start station latitude":40.7757937668,
        "start station longitude":-73.9762057364
    },
    {
        "start station name":"Riverside Dr & W 72 St",
        "start station latitude":40.7805779901,
        "start station longitude":-73.9856243134
    },
    {
        "start station name":"Amsterdam Ave & W 73 St",
        "start station latitude":40.7796680901,
        "start station longitude":-73.9809304476
    },
    {
        "start station name":"Central Park West & W 85 St",
        "start station latitude":40.78472675,
        "start station longitude":-73.96961715
    },
    {
        "start station name":"Riverside Dr & W 82 St",
        "start station latitude":40.78720869,
        "start station longitude":-73.98128127
    },
    {
        "start station name":"W 84 St & Columbus Ave",
        "start station latitude":40.78499979,
        "start station longitude":-73.97283406
    },
    {
        "start station name":"Amsterdam Ave & W 82 St",
        "start station latitude":40.78524672,
        "start station longitude":-73.97667321
    },
    {
        "start station name":"W 74 St & Columbus Ave",
        "start station latitude":40.7785669,
        "start station longitude":-73.97754961
    },
    {
        "start station name":"Riverside Blvd & W 67 St",
        "start station latitude":40.7775070275,
        "start station longitude":-73.9888858795
    },
    {
        "start station name":"W 70 St & Amsterdam Ave",
        "start station latitude":40.77748046,
        "start station longitude":-73.98288594
    },
    {
        "start station name":"W 84 St & Broadway",
        "start station latitude":40.7867947,
        "start station longitude":-73.977112
    },
    {
        "start station name":"Riverside Dr & W 78 St",
        "start station latitude":40.78414472,
        "start station longitude":-73.98362492
    },
    {
        "start station name":"Park Ave & Marcus Garvey Blvd",
        "start station latitude":40.698617,
        "start station longitude":-73.941342
    },
    {
        "start station name":"Yankee Ferry Terminal",
        "start station latitude":40.686931,
        "start station longitude":-74.016966
    },
    {
        "start station name":"47 Ave & 31 St",
        "start station latitude":40.743,
        "start station longitude":-73.93561
    },
    {
        "start station name":"E 55 St & 3 Ave",
        "start station latitude":40.7589965596,
        "start station longitude":-73.9686539769
    },
    {
        "start station name":"W 82 St & Central Park West",
        "start station latitude":40.78275,
        "start station longitude":-73.97137
    },
    {
        "start station name":"E 67 St & Park Ave",
        "start station latitude":40.7678008015,
        "start station longitude":-73.9659208059
    },
    {
        "start station name":"Bond St & Fulton St",
        "start station latitude":40.6896218879,
        "start station longitude":-73.9830426872
    },
    {
        "start station name":"E 48 St & 5 Ave",
        "start station latitude":40.7572456791,
        "start station longitude":-73.9780591428
    },
    {
        "start station name":"E 41 St & Madison Ave",
        "start station latitude":40.7521652806,
        "start station longitude":-73.979921937
    },
    {
        "start station name":"W 42 St & Dyer Ave",
        "start station latitude":40.758984814,
        "start station longitude":-73.9937996864
    },
    {
        "start station name":"Monroe St & Tompkins Ave",
        "start station latitude":40.686203,
        "start station longitude":-73.944694
    },
    {
        "start station name":"Schermerhorn St & Court St",
        "start station latitude":40.6910292568,
        "start station longitude":-73.9918336272
    },
    {
        "start station name":"E 58 St & 1 Ave (NE Corner)",
        "start station latitude":40.7589238638,
        "start station longitude":-73.9622622728
    },
    {
        "start station name":"University Pl & E 8 St",
        "start station latitude":40.7314372409,
        "start station longitude":-73.9949034154
    },
    {
        "start station name":"NYCBS DEPOT - DELANCEY",
        "start station latitude":40.7164442313,
        "start station longitude":-73.9823305607
    },
    {
        "start station name":"Verona Pl & Fulton St",
        "start station latitude":40.680356084,
        "start station longitude":-73.9476791024
    },
    {
        "start station name":"Soissons Landing",
        "start station latitude":40.6923166072,
        "start station longitude":-74.014865756
    },
    {
        "start station name":"8 Ave & W 31 St",
        "start station latitude":40.750585347,
        "start station longitude":-73.9946848154
    },
    {
        "start station name":"Pier 40 - Hudson River Park",
        "start station latitude":40.7277140778,
        "start station longitude":-74.0112957358
    },
    {
        "start station name":"W 27 St & 10 Ave",
        "start station latitude":40.7501815633,
        "start station longitude":-74.0021842718
    },
    {
        "start station name":"9 Ave & W 28 St",
        "start station latitude":40.7493702419,
        "start station longitude":-73.9992338419
    },
    {
        "start station name":"Mercer St & Bleecker St",
        "start station latitude":40.7270636335,
        "start station longitude":-73.9966213703
    },
    {
        "start station name":"Cooper Square & Astor Pl",
        "start station latitude":40.7295149622,
        "start station longitude":-73.990752697
    },
    {
        "start station name":"5 Ave & E 88 St",
        "start station latitude":40.78307,
        "start station longitude":-73.95939
    },
    {
        "start station name":"W 89 St & Columbus Ave",
        "start station latitude":40.7882213,
        "start station longitude":-73.97041561
    },
    {
        "start station name":"E 88 St & Park Ave",
        "start station latitude":40.7814107002,
        "start station longitude":-73.9559590816
    },
    {
        "start station name":"W 87 St & Amsterdam Ave",
        "start station latitude":40.78839,
        "start station longitude":-73.9747
    },
    {
        "start station name":"E 89 St & 3 Ave",
        "start station latitude":40.7806284,
        "start station longitude":-73.9521667
    },
    {
        "start station name":"E 88 St & 1 Ave",
        "start station latitude":40.778301,
        "start station longitude":-73.9488134
    },
    {
        "start station name":"W 90 St & Amsterdam Ave",
        "start station latitude":40.790179481,
        "start station longitude":-73.972889185
    },
    {
        "start station name":"E 89 St & York Ave",
        "start station latitude":40.7779453,
        "start station longitude":-73.946041
    },
    {
        "start station name":"5 Ave & E 93 St",
        "start station latitude":40.7857851,
        "start station longitude":-73.957481
    },
    {
        "start station name":"W 92 St & Broadway",
        "start station latitude":40.7921,
        "start station longitude":-73.9739
    },
    {
        "start station name":"E 91 St & Park Ave",
        "start station latitude":40.7835016,
        "start station longitude":-73.955327
    },
    {
        "start station name":"Central Park W & W 96 St",
        "start station latitude":40.79127,
        "start station longitude":-73.964839
    },
    {
        "start station name":"E 93 St & 2 Ave",
        "start station latitude":40.7824541753,
        "start station longitude":-73.9489196241
    },
    {
        "start station name":"6 St & 7 Ave",
        "start station latitude":40.6686627,
        "start station longitude":-73.97988067
    },
    {
        "start station name":"Warren St & Court St",
        "start station latitude":40.686371,
        "start station longitude":-73.99383324
    },
    {
        "start station name":"E 98 St & Park Ave",
        "start station latitude":40.78813,
        "start station longitude":-73.95206
    },
    {
        "start station name":"Prospect Park West & 8 St",
        "start station latitude":40.6651468153,
        "start station longitude":-73.9763760567
    },
    {
        "start station name":"Columbus Ave & W 95 St",
        "start station latitude":40.7919557,
        "start station longitude":-73.968087
    },
    {
        "start station name":"Columbus Ave & W 103 St",
        "start station latitude":40.7969347,
        "start station longitude":-73.9643412291
    },
    {
        "start station name":"Butler St & Court St",
        "start station latitude":40.6849894,
        "start station longitude":-73.99440329
    },
    {
        "start station name":"6 Ave & 9 St",
        "start station latitude":40.668127,
        "start station longitude":-73.98377641
    },
    {
        "start station name":"E 91 St & 2 Ave",
        "start station latitude":40.7811222993,
        "start station longitude":-73.9496558905
    },
    {
        "start station name":"10 St & 7 Ave",
        "start station latitude":40.6662078,
        "start station longitude":-73.98199886
    },
    {
        "start station name":"West End Ave & W 94 St",
        "start station latitude":40.7941654,
        "start station longitude":-73.974124
    },
    {
        "start station name":"Kane St & Clinton St",
        "start station latitude":40.6861758,
        "start station longitude":-73.99645295
    },
    {
        "start station name":"E 97 St & 3 Ave",
        "start station latitude":40.7859201,
        "start station longitude":-73.94860294
    },
    {
        "start station name":"14 St & 7 Ave",
        "start station latitude":40.663779,
        "start station longitude":-73.98396846
    },
    {
        "start station name":"Columbia St & Kane St",
        "start station latitude":40.68763155,
        "start station longitude":-74.0016256
    },
    {
        "start station name":"1 Ave & E 94 St",
        "start station latitude":40.7817212,
        "start station longitude":-73.94594
    },
    {
        "start station name":"6 Ave & 12 St",
        "start station latitude":40.6663181,
        "start station longitude":-73.9854617
    },
    {
        "start station name":"W 95 St & Broadway",
        "start station latitude":40.7937704,
        "start station longitude":-73.971888
    },
    {
        "start station name":"Henry St & Degraw St",
        "start station latitude":40.6847514,
        "start station longitude":-73.99917254
    },
    {
        "start station name":"10 St & 5 Ave",
        "start station latitude":40.6686273,
        "start station longitude":-73.98700053
    },
    {
        "start station name":"2 Ave & E 96 St",
        "start station latitude":40.7839636,
        "start station longitude":-73.9471673
    },
    {
        "start station name":"14 St & 5 Ave",
        "start station latitude":40.666287,
        "start station longitude":-73.98895053
    },
    {
        "start station name":"Central Park West & W 100 St",
        "start station latitude":40.7940666082,
        "start station longitude":-73.9628684521
    },
    {
        "start station name":"Clinton St & Union St",
        "start station latitude":40.6831164,
        "start station longitude":-73.99785267
    },
    {
        "start station name":"12 St & 4 Ave",
        "start station latitude":40.668603,
        "start station longitude":-73.9904394
    },
    {
        "start station name":"W 106 St & Central Park West",
        "start station latitude":40.7981856,
        "start station longitude":-73.9605909006
    },
    {
        "start station name":"3 Ave & 14 St",
        "start station latitude":40.6685455,
        "start station longitude":-73.99333264
    },
    {
        "start station name":"Clinton St & Centre St",
        "start station latitude":40.67434,
        "start station longitude":-74.00194698
    },
    {
        "start station name":"3 Ave & E 100 St",
        "start station latitude":40.7877214,
        "start station longitude":-73.94728331
    },
    {
        "start station name":"W 100 St & Manhattan Ave",
        "start station latitude":40.795,
        "start station longitude":-73.9645
    },
    {
        "start station name":"Degraw St & Smith St",
        "start station latitude":40.6829151,
        "start station longitude":-73.99318208
    },
    {
        "start station name":"Henry St & Bay St",
        "start station latitude":40.6725058,
        "start station longitude":-74.00494695
    },
    {
        "start station name":"Riverside Dr & W 104 St",
        "start station latitude":40.8013434,
        "start station longitude":-73.9711457439
    },
    {
        "start station name":"Degraw St & Hoyt St",
        "start station latitude":40.6819904427,
        "start station longitude":-73.9907902479
    },
    {
        "start station name":"Columbia St & Lorraine St",
        "start station latitude":40.6747055,
        "start station longitude":-74.0075572
    },
    {
        "start station name":"Union St & 4 Ave",
        "start station latitude":40.6772744,
        "start station longitude":-73.98282002
    },
    {
        "start station name":"E 97 St & Madison Ave",
        "start station latitude":40.787801,
        "start station longitude":-73.953559
    },
    {
        "start station name":"Dwight St & Van Dyke St",
        "start station latitude":40.6736355134,
        "start station longitude":-74.0119555593
    },
    {
        "start station name":"2 Ave & E 99 St",
        "start station latitude":40.7862586,
        "start station longitude":-73.94552579
    },
    {
        "start station name":"Berkeley Pl & 6 Ave",
        "start station latitude":40.6765304,
        "start station longitude":-73.97846879
    },
    {
        "start station name":"Wolcott St & Dwight St",
        "start station latitude":40.6753274,
        "start station longitude":-74.0100698
    },
    {
        "start station name":"Central Park West & W 102 St",
        "start station latitude":40.795346,
        "start station longitude":-73.96186
    },
    {
        "start station name":"Pioneer St & Richards St",
        "start station latitude":40.6777748,
        "start station longitude":-74.0094613
    },
    {
        "start station name":"W 107 St & Columbus Ave",
        "start station latitude":40.7997568,
        "start station longitude":-73.9621128676
    },
    {
        "start station name":"Pioneer St & Van Brunt St",
        "start station latitude":40.679043,
        "start station longitude":-74.011169
    },
    {
        "start station name":"Madison Ave & E 99 St",
        "start station latitude":40.7894854155,
        "start station longitude":-73.9524292946
    },
    {
        "start station name":"Berkeley Pl & 7 Ave",
        "start station latitude":40.6751468387,
        "start station longitude":-73.9752320945
    },
    {
        "start station name":"Van Brunt St & Wolcott St",
        "start station latitude":40.6773429,
        "start station longitude":-74.01275056
    },
    {
        "start station name":"Coffey St & Conover St",
        "start station latitude":40.677236,
        "start station longitude":-74.015665
    },
    {
        "start station name":"Grand Army Plaza & Plaza St West",
        "start station latitude":40.6729679,
        "start station longitude":-73.97087984
    },
    {
        "start station name":"W 100 St & Broadway",
        "start station latitude":40.7973721,
        "start station longitude":-73.97041192
    },
    {
        "start station name":"E 102 St & 1 Ave",
        "start station latitude":40.7869946,
        "start station longitude":-73.94164802
    },
    {
        "start station name":"Sigourney St & Columbia St",
        "start station latitude":40.6726724341,
        "start station longitude":-74.0087952465
    },
    {
        "start station name":"3 St & Prospect Park West",
        "start station latitude":40.668132,
        "start station longitude":-73.97363831
    },
    {
        "start station name":"E 66 St & Madison Ave",
        "start station latitude":40.7680088931,
        "start station longitude":-73.9684528112
    },
    {
        "start station name":"Amsterdam Ave & W 66 St",
        "start station latitude":40.7746671,
        "start station longitude":-73.98470567
    },
    {
        "start station name":"W 106 St & Amsterdam Ave",
        "start station latitude":40.8008363,
        "start station longitude":-73.9664492472
    },
    {
        "start station name":"Garfield Pl & 8 Ave",
        "start station latitude":40.6711978,
        "start station longitude":-73.97484126
    },
    {
        "start station name":"E 68 St & Madison Ave",
        "start station latitude":40.7691572,
        "start station longitude":-73.96703464
    },
    {
        "start station name":"Amsterdam Ave & W 79 St",
        "start station latitude":40.7829391,
        "start station longitude":-73.9786517
    },
    {
        "start station name":"Carroll St & 6 Ave",
        "start station latitude":40.6740886,
        "start station longitude":-73.9787282
    },
    {
        "start station name":"Madison Ave & E 82 St",
        "start station latitude":40.7781314,
        "start station longitude":-73.96069399
    },
    {
        "start station name":"E 102 St & Park Ave",
        "start station latitude":40.7904828,
        "start station longitude":-73.95033068
    },
    {
        "start station name":"Carroll St & 5 Ave",
        "start station latitude":40.6751622,
        "start station longitude":-73.9814832
    },
    {
        "start station name":"3 St & 7 Ave",
        "start station latitude":40.6703837,
        "start station longitude":-73.97839676
    },
    {
        "start station name":"West End Ave & W 107 St",
        "start station latitude":40.8021174,
        "start station longitude":-73.9681805305
    },
    {
        "start station name":"5 Ave & E 103 St",
        "start station latitude":40.7922553,
        "start station longitude":-73.95249933
    },
    {
        "start station name":"5 Ave & 3 St",
        "start station latitude":40.6728155,
        "start station longitude":-73.98352355
    },
    {
        "start station name":"E 82 St & East End Ave",
        "start station latitude":40.7724607,
        "start station longitude":-73.9468208
    },
    {
        "start station name":"E 78 St & 2 Ave",
        "start station latitude":40.7727966,
        "start station longitude":-73.95577801
    },
    {
        "start station name":"E 74 St & 1 Ave",
        "start station latitude":40.7689738,
        "start station longitude":-73.95482273
    },
    {
        "start station name":"3 St & 3 Ave",
        "start station latitude":40.6750705,
        "start station longitude":-73.98775226
    },
    {
        "start station name":"Central Park North & Adam Clayton Powell Blvd",
        "start station latitude":40.799484,
        "start station longitude":-73.955613
    },
    {
        "start station name":"3 Ave & E 72 St",
        "start station latitude":40.7699426,
        "start station longitude":-73.96060712
    },
    {
        "start station name":"E 65 St & 2 Ave",
        "start station latitude":40.7647185194,
        "start station longitude":-73.9622206986
    },
    {
        "start station name":"Carroll St & Bond St",
        "start station latitude":40.6786115,
        "start station longitude":-73.99037292
    },
    {
        "start station name":"E 76 St & Park Ave",
        "start station latitude":40.773763,
        "start station longitude":-73.96222088
    },
    {
        "start station name":"E 103 St & Lexington Ave",
        "start station latitude":40.7903051,
        "start station longitude":-73.94755757
    },
    {
        "start station name":"3 St & Hoyt St",
        "start station latitude":40.6777287,
        "start station longitude":-73.99364123
    },
    {
        "start station name":"Carroll St & Smith St",
        "start station latitude":40.680611,
        "start station longitude":-73.99475825
    },
    {
        "start station name":"Cathedral Pkwy & Broadway",
        "start station latitude":40.804213,
        "start station longitude":-73.96699104
    },
    {
        "start station name":"Smith St & 3 St",
        "start station latitude":40.6787242,
        "start station longitude":-73.99599099
    },
    {
        "start station name":"1 Pl & Clinton St",
        "start station latitude":40.6809591,
        "start station longitude":-73.99905709
    },
    {
        "start station name":"E 106 St & Madison Ave",
        "start station latitude":40.7934337,
        "start station longitude":-73.94945003
    },
    {
        "start station name":"President St & Henry St",
        "start station latitude":40.6828003,
        "start station longitude":-73.99990419
    },
    {
        "start station name":"Carroll St & Columbia St",
        "start station latitude":40.6830456,
        "start station longitude":-74.00348559
    },
    {
        "start station name":"E 109 St & 3 Ave",
        "start station latitude":40.79329668,
        "start station longitude":-73.9432083
    },
    {
        "start station name":"E 106 St & 1 Ave",
        "start station latitude":40.7892529,
        "start station longitude":-73.93956237
    },
    {
        "start station name":"Commerce St & Van Brunt St",
        "start station latitude":40.6812117,
        "start station longitude":-74.00860912
    },
    {
        "start station name":"Richards St & Delavan St",
        "start station latitude":40.6794327,
        "start station longitude":-74.00785041
    },
    {
        "start station name":"Columbia St & W 9 St",
        "start station latitude":40.6769993,
        "start station longitude":-74.00647134
    },
    {
        "start station name":"Henry St & W 9 St",
        "start station latitude":40.6763744,
        "start station longitude":-74.00324957
    },
    {
        "start station name":"Clinton St & 4 Place",
        "start station latitude":40.6783563,
        "start station longitude":-74.00014502
    },
    {
        "start station name":"Court St & Nelson St",
        "start station latitude":40.6763947,
        "start station longitude":-73.99869893
    },
    {
        "start station name":"Smith St & 9 St",
        "start station latitude":40.6746957,
        "start station longitude":-73.99785768
    },
    {
        "start station name":"7 St & 3 Ave",
        "start station latitude":40.6726029815,
        "start station longitude":-73.9898300171
    },
    {
        "start station name":"E 110 St & Madison Ave",
        "start station latitude":40.7961535,
        "start station longitude":-73.94782145
    },
    {
        "start station name":"Court St & State St",
        "start station latitude":40.6902375,
        "start station longitude":-73.99203074
    },
    {
        "start station name":"4 Ave & 9 St",
        "start station latitude":40.6705135,
        "start station longitude":-73.98876585
    },
    {
        "start station name":"7 St & 5 Ave",
        "start station latitude":40.6704922,
        "start station longitude":-73.98541675
    },
    {
        "start station name":"5 St & 6 Ave",
        "start station latitude":40.6704836,
        "start station longitude":-73.98208968
    },
    {
        "start station name":"Union St & Nevins St",
        "start station latitude":40.6790979972,
        "start station longitude":-73.9876547456
    },
    {
        "start station name":"Congress St & Clinton St",
        "start station latitude":40.6881529,
        "start station longitude":-73.99520919
    },
    {
        "start station name":"Bergen St & Smith St",
        "start station latitude":40.6867443,
        "start station longitude":-73.99063168
    },
    {
        "start station name":"Dean St & Hoyt St",
        "start station latitude":40.6864442,
        "start station longitude":-73.98759104
    },
    {
        "start station name":"Bond St & Bergen St",
        "start station latitude":40.6849668,
        "start station longitude":-73.98620772
    },
    {
        "start station name":"Pacific St & Nevins St",
        "start station latitude":40.6853761,
        "start station longitude":-73.98302136
    },
    {
        "start station name":"Wyckoff St & 3 Ave",
        "start station latitude":40.6827549,
        "start station longitude":-73.98258555
    },
    {
        "start station name":"Bergen St & Flatbush Ave",
        "start station latitude":40.6809447235,
        "start station longitude":-73.9756733179
    },
    {
        "start station name":"Prospect Pl & 6 Ave",
        "start station latitude":40.6793307,
        "start station longitude":-73.97519523
    },
    {
        "start station name":"7 Ave & Park Pl",
        "start station latitude":40.6776147,
        "start station longitude":-73.97324283
    },
    {
        "start station name":"Baltic St & 5 Ave",
        "start station latitude":40.6795766,
        "start station longitude":-73.97854971
    },
    {
        "start station name":"Plaza St West & Flatbush Ave",
        "start station latitude":40.6750207,
        "start station longitude":-73.97111473
    },
    {
        "start station name":"Douglass St & 4 Ave",
        "start station latitude":40.6792788,
        "start station longitude":-73.98154004
    },
    {
        "start station name":"Douglass St & 3 Ave",
        "start station latitude":40.6802133,
        "start station longitude":-73.98432695
    },
    {
        "start station name":"Columbia St & Degraw St",
        "start station latitude":40.6859296,
        "start station longitude":-74.00242364
    },
    {
        "start station name":"West Drive & Prospect Park West",
        "start station latitude":40.6610633719,
        "start station longitude":-73.9794525504
    },
    {
        "start station name":"E 106 St & Lexington Ave",
        "start station latitude":40.791976,
        "start station longitude":-73.945993
    },
    {
        "start station name":"2 Ave & E 104 St",
        "start station latitude":40.7892105,
        "start station longitude":-73.94370784
    },
    {
        "start station name":"Lafayette St & Jersey St",
        "start station latitude":40.7243052725,
        "start station longitude":-73.9960098267
    },
    {
        "start station name":"Hanson Pl & Ashland Pl",
        "start station latitude":40.6850680731,
        "start station longitude":-73.977907598
    },
    {
        "start station name":"Richardson St & N Henry St",
        "start station latitude":40.7190789118,
        "start station longitude":-73.9422369003
    },
    {
        "start station name":"NYCBS Depot - GOW",
        "start station latitude":40.669060135,
        "start station longitude":-73.9946365356
    },
    {
        "start station name":"W 88 St & West End Ave",
        "start station latitude":40.7902541733,
        "start station longitude":-73.9771834016
    },
    {
        "start station name":"Grand St & Elizabeth St",
        "start station latitude":40.718822,
        "start station longitude":-73.99596
    },
    {
        "start station name":"Riverside Dr & W 91 St",
        "start station latitude":40.7931348099,
        "start station longitude":-73.9770036936
    },
    {
        "start station name":"Fulton St & Adams St",
        "start station latitude":40.6924182926,
        "start station longitude":-73.989494741
    },
    {
        "start station name":"10 Hudson Yards",
        "start station latitude":40.752957,
        "start station longitude":-74.00264
    },
    {
        "start station name":"W 52 St & 6 Ave",
        "start station latitude":40.7613298312,
        "start station longitude":-73.979820013
    },
    {
        "start station name":"Eckford St & Engert Ave",
        "start station latitude":40.7214625623,
        "start station longitude":-73.9480090141
    },
    {
        "start station name":"Bayard St & Leonard St",
        "start station latitude":40.719155717,
        "start station longitude":-73.94885391
    },
    {
        "start station name":"Devoe St & Lorimer St",
        "start station latitude":40.7133522622,
        "start station longitude":-73.9491033554
    },
    {
        "start station name":"Leonard St & Maujer St",
        "start station latitude":40.7103685424,
        "start station longitude":-73.9470595121
    },
    {
        "start station name":"Jackson St & Leonard St",
        "start station latitude":40.7163803197,
        "start station longitude":-73.948212862
    },
    {
        "start station name":"E 53 St & 3 Ave",
        "start station latitude":40.7576322774,
        "start station longitude":-73.9693057537
    },
    {
        "start station name":"Murray St & Greenwich St",
        "start station latitude":40.7148515053,
        "start station longitude":-74.0112233162
    },
    {
        "start station name":"E 16 St & Irving Pl",
        "start station latitude":40.7353670556,
        "start station longitude":-73.9879739285
    },
    {
        "start station name":"W Broadway & Spring Street",
        "start station latitude":40.7249467236,
        "start station longitude":-74.0016585588
    },
    {
        "start station name":"India St & West St",
        "start station latitude":40.7318140172,
        "start station longitude":-73.9599502087
    },
    {
        "start station name":"W 15 St & 10 Ave",
        "start station latitude":40.7427538287,
        "start station longitude":-74.007473588
    },
    {
        "start station name":"39 St & 2 Ave - Citi Bike HQ at Industry City",
        "start station latitude":40.6553997745,
        "start station longitude":-74.0106278658
    },
    {
        "start station name":"2 Ave & 36 St - Citi Bike HQ at Industry City",
        "start station latitude":40.6570886667,
        "start station longitude":-74.0087020397
    },
    {
        "start station name":"Picnic Point",
        "start station latitude":40.6851255952,
        "start station longitude":-74.0253531933
    },
    {
        "start station name":"Schermerhorn St & Bond St",
        "start station latitude":40.6884174275,
        "start station longitude":-73.984516561
    },
    {
        "start station name":"E 116 St & 2 Ave",
        "start station latitude":40.796879,
        "start station longitude":-73.937261
    },
    {
        "start station name":"E 118 St & 1 Ave",
        "start station latitude":40.79747,
        "start station longitude":-73.93504
    },
    {
        "start station name":"E 118 St & Park Ave",
        "start station latitude":40.8005385,
        "start station longitude":-73.9419949
    },
    {
        "start station name":"E 118 St & 3 Ave",
        "start station latitude":40.799139,
        "start station longitude":-73.9389152
    },
    {
        "start station name":"E 115 St & Lexington Ave",
        "start station latitude":40.797911,
        "start station longitude":-73.9423
    },
    {
        "start station name":"E 114 St & 1 Ave",
        "start station latitude":40.7945663,
        "start station longitude":-73.9362541
    },
    {
        "start station name":"1 Ave & E 110 St",
        "start station latitude":40.7923272,
        "start station longitude":-73.9383
    },
    {
        "start station name":"Pleasant Ave & E 116 St",
        "start station latitude":40.7949879,
        "start station longitude":-73.9333349
    },
    {
        "start station name":"Pleasant Ave & E 120 St",
        "start station latitude":40.7974772,
        "start station longitude":-73.9311847
    },
    {
        "start station name":"2 Ave & E 122 St",
        "start station latitude":40.8006721,
        "start station longitude":-73.9349
    },
    {
        "start station name":"E 115 St & Madison Ave",
        "start station latitude":40.7989445,
        "start station longitude":-73.944846
    },
    {
        "start station name":"E 118 St & Madison Ave",
        "start station latitude":40.8014866,
        "start station longitude":-73.9442507
    },
    {
        "start station name":"Lexington Ave & E 111 St",
        "start station latitude":40.7954121,
        "start station longitude":-73.9441232
    },
    {
        "start station name":"Madison Ave & E 120 St",
        "start station latitude":40.80295,
        "start station longitude":-73.942954
    },
    {
        "start station name":"E 123 St & Lexington Ave",
        "start station latitude":40.8029263,
        "start station longitude":-73.9379
    },
    {
        "start station name":"Lexington Ave & E 127 St",
        "start station latitude":40.805726,
        "start station longitude":-73.936322
    },
    {
        "start station name":"Lexington Ave & E 120 St",
        "start station latitude":40.8013066,
        "start station longitude":-73.9398167
    },
    {
        "start station name":"Park Ave & E 124 St",
        "start station latitude":40.8045555,
        "start station longitude":-73.9396861
    },
    {
        "start station name":"St Nicholas Ave & Manhattan Ave",
        "start station latitude":40.809725,
        "start station longitude":-73.953149
    },
    {
        "start station name":"Lenox Ave & W 115 St",
        "start station latitude":40.8011939,
        "start station longitude":-73.9500739
    },
    {
        "start station name":"Adam Clayton Powell Blvd & W 123 St",
        "start station latitude":40.8078316,
        "start station longitude":-73.949373
    },
    {
        "start station name":"Adam Clayton Powell Blvd & W 115 St",
        "start station latitude":40.802535,
        "start station longitude":-73.9532423
    },
    {
        "start station name":"27 Ave & 4 St",
        "start station latitude":40.7747175,
        "start station longitude":-73.9337894
    },
    {
        "start station name":"21 St & Hoyt Ave S",
        "start station latitude":40.774645,
        "start station longitude":-73.923706
    },
    {
        "start station name":"Astoria Park S & Shore Blvd",
        "start station latitude":40.7767,
        "start station longitude":-73.927631
    },
    {
        "start station name":"24 Ave & 26 St",
        "start station latitude":40.774591,
        "start station longitude":-73.918544
    },
    {
        "start station name":"31 St & Astoria Blvd",
        "start station latitude":40.7699176,
        "start station longitude":-73.9184057
    },
    {
        "start station name":"31 St & Hoyt Ave N",
        "start station latitude":40.7711528,
        "start station longitude":-73.9170074
    },
    {
        "start station name":"Lenox Ave & W 126 St",
        "start station latitude":40.808442,
        "start station longitude":-73.9452087
    },
    {
        "start station name":"Adam Clayton Powell Blvd & W 118 St",
        "start station latitude":40.804372,
        "start station longitude":-73.951475
    },
    {
        "start station name":"Lenox Ave & W 111 St",
        "start station latitude":40.7987859,
        "start station longitude":-73.9523
    },
    {
        "start station name":"37 St & 24 Ave",
        "start station latitude":40.7701477,
        "start station longitude":-73.9120938
    },
    {
        "start station name":"24 Ave & 29 St",
        "start station latitude":40.7729,
        "start station longitude":-73.916142
    },
    {
        "start station name":"19 St & 24 Ave",
        "start station latitude":40.7774552,
        "start station longitude":-73.9225403
    },
    {
        "start station name":"23 Ave & 27 St",
        "start station latitude":40.776165,
        "start station longitude":-73.9153175
    },
    {
        "start station name":"31 St & 23 Ave",
        "start station latitude":40.7747878,
        "start station longitude":-73.9125551
    },
    {
        "start station name":"5 Ave & E 126 St",
        "start station latitude":40.80698,
        "start station longitude":-73.941747
    },
    {
        "start station name":"Steinway St & 23 Ave",
        "start station latitude":40.7713937,
        "start station longitude":-73.9077436
    },
    {
        "start station name":"Lenox Ave & W 130 St",
        "start station latitude":40.8107922,
        "start station longitude":-73.9430681
    },
    {
        "start station name":"Crescent St & Ditmars Blvd",
        "start station latitude":40.7787185,
        "start station longitude":-73.9145645
    },
    {
        "start station name":"Frederick Douglass Blvd & W 129 St",
        "start station latitude":40.8125511,
        "start station longitude":-73.9492286
    },
    {
        "start station name":"Ditmars Blvd & 19 St",
        "start station latitude":40.78145,
        "start station longitude":-73.9183302
    },
    {
        "start station name":"St. Nicholas Ave & W 126 St",
        "start station latitude":40.8114323,
        "start station longitude":-73.9518776
    },
    {
        "start station name":"Frederick Douglass Blvd & W 117 St",
        "start station latitude":40.805159,
        "start station longitude":-73.954692
    },
    {
        "start station name":"Mt Morris Park W & W 120 St",
        "start station latitude":40.804038,
        "start station longitude":-73.945925
    },
    {
        "start station name":"W 116 St & Broadway",
        "start station latitude":40.8082,
        "start station longitude":-73.9641
    },
    {
        "start station name":"Carlton Ave & Dean St",
        "start station latitude":40.6809741,
        "start station longitude":-73.9710097
    },
    {
        "start station name":"W 110 St & Amsterdam Ave",
        "start station latitude":40.802692,
        "start station longitude":-73.96295
    },
    {
        "start station name":"W 116 St & Amsterdam Ave",
        "start station latitude":40.8067581,
        "start station longitude":-73.9607082
    },
    {
        "start station name":"Morningside Ave & W 123 St",
        "start station latitude":40.81,
        "start station longitude":-73.9551508
    },
    {
        "start station name":"Amsterdam Ave & W 125 St",
        "start station latitude":40.813358,
        "start station longitude":-73.956461
    },
    {
        "start station name":"Amsterdam Ave & W 119 St",
        "start station latitude":40.8086249,
        "start station longitude":-73.9596214
    },
    {
        "start station name":"Morningside Dr & Amsterdam Ave",
        "start station latitude":40.8102850631,
        "start station longitude":-73.9573645592
    },
    {
        "start station name":"Underhill Ave & Pacific St",
        "start station latitude":40.6804836,
        "start station longitude":-73.9646795
    },
    {
        "start station name":"Broadway & W 122 St",
        "start station latitude":40.8120562,
        "start station longitude":-73.9612547
    },
    {
        "start station name":"Pacific St & Classon Ave",
        "start station latitude":40.6791944,
        "start station longitude":-73.9587903
    },
    {
        "start station name":"Broadway & Moylan Pl",
        "start station latitude":40.8143256,
        "start station longitude":-73.9590255
    },
    {
        "start station name":"Grand Ave & Bergen St",
        "start station latitude":40.678045,
        "start station longitude":-73.962408
    },