[
    {
        "start station name":"W 52 St & 11 Ave",
        "start station latitude":40.76727216,
        "start station longitude":-73.99392888
    },
    {
        "start station name":"Franklin St & W Broadway",
        "start station latitude":40.71911552,
        "start station longitude":-74.00666661
    },
    {
        "start station name":"St James Pl & Pearl St",
        "start station latitude":40.71117416,
        "start station longitude":-74.00016545
    },
    {
        "start station name":"W 17 St & 8 Ave",
        "start station latitude":40.74177603,
        "start station longitude":-74.00149746
    },
    {
        "start station name":"Barrow St & Hudson St",
        "start station latitude":40.73172428,
        "start station longitude":-74.00674436
    },
    {
        "start station name":"MacDougal St & Prince St",
        "start station latitude":40.72710258,
        "start station longitude":-74.00297088
    },
    {
        "start station name":"Hudson St & Reade St",
        "start station latitude":40.71625008,
        "start station longitude":-74.0091059
    },
    {
        "start station name":"E 2 St & Avenue C",
        "start station latitude":40.7208736,
        "start station longitude":-73.98085795
    },
    {
        "start station name":"Cleveland Pl & Spring St",
        "start station latitude":40.7221037867,
        "start station longitude":-73.9972490072
    },
    {
        "start station name":"LaGuardia Pl & W 3 St",
        "start station latitude":40.72917025,
        "start station longitude":-73.99810231
    },
    {
        "start station name":"E 47 St & 2 Ave",
        "start station latitude":40.75323098,
        "start station longitude":-73.97032517
    },
    {
        "start station name":"E 39 St & 3 Ave",
        "start station latitude":40.7489006,
        "start station longitude":-73.97604882
    },
    {
        "start station name":"W 18 St & 6 Ave",
        "start station latitude":40.73971301,
        "start station longitude":-73.99456405
    },
    {
        "start station name":"Broadway & W 49 St",
        "start station latitude":40.760683271,
        "start station longitude":-73.9845272899
    },
    {
        "start station name":"E 25 St & 1 Ave",
        "start station latitude":40.7381765,
        "start station longitude":-73.97738662
    },
    {
        "start station name":"Liberty St & Broadway",
        "start station latitude":40.70905623,
        "start station longitude":-74.01043382
    },
    {
        "start station name":"W 16 St & The High Line",
        "start station latitude":40.74334935,
        "start station longitude":-74.00681753
    },
    {
        "start station name":"W 13 St & 7 Ave",
        "start station latitude":40.73781509,
        "start station longitude":-73.99994661
    },
    {
        "start station name":"Spruce St & Nassau St",
        "start station latitude":40.71146364,
        "start station longitude":-74.00552427
    },
    {
        "start station name":"E 48 St & 3 Ave",
        "start station latitude":40.7546011026,
        "start station longitude":-73.971878855
    },
    {
        "start station name":"Great Jones St",
        "start station latitude":40.72743423,
        "start station longitude":-73.99379025
    },
    {
        "start station name":"St Marks Pl & 2 Ave",
        "start station latitude":40.7284186,
        "start station longitude":-73.98713956
    },
    {
        "start station name":"E 11 St & 2 Ave",
        "start station latitude":40.73047309,
        "start station longitude":-73.98672378
    },
    {
        "start station name":"Bank St & Washington St",
        "start station latitude":40.7361967,
        "start station longitude":-74.00859207
    },
    {
        "start station name":"Perry St & Bleecker St",
        "start station latitude":40.73535398,
        "start station longitude":-74.00483091
    },
    {
        "start station name":"Laight St & Hudson St",
        "start station latitude":40.72185379,
        "start station longitude":-74.00771779
    },
    {
        "start station name":"Harrison St & Hudson St",
        "start station latitude":40.71870987,
        "start station longitude":-74.0090009
    },
    {
        "start station name":"Mott St & Prince St",
        "start station latitude":40.72317958,
        "start station longitude":-73.99480012
    },
    {
        "start station name":"MacDougal St & Washington Sq",
        "start station latitude":40.73226398,
        "start station longitude":-73.99852205
    },
    {
        "start station name":"W 11 St & 6 Ave",
        "start station latitude":40.73532427,
        "start station longitude":-73.99800419
    },
    {
        "start station name":"Lispenard St & Broadway",
        "start station latitude":40.71939226,
        "start station longitude":-74.00247214
    },
    {
        "start station name":"South St & Whitehall St",
        "start station latitude":40.70122128,
        "start station longitude":-74.01234218
    },
    {
        "start station name":"Broad St & Bridge St",
        "start station latitude":40.70365182,
        "start station longitude":-74.01167797
    },
    {
        "start station name":"Maiden Ln & Pearl St",
        "start station latitude":40.70706456,
        "start station longitude":-74.00731853
    },
    {
        "start station name":"Stanton St & Chrystie St",
        "start station latitude":40.72229346,
        "start station longitude":-73.99147535
    },
    {
        "start station name":"Avenue D & E 8 St",
        "start station latitude":40.72368361,
        "start station longitude":-73.97574813
    },
    {
        "start station name":"Howard St & Centre St",
        "start station latitude":40.71910537,
        "start station longitude":-73.99973337
    },
    {
        "start station name":"Duane St & Greenwich St",
        "start station latitude":40.71748752,
        "start station longitude":-74.0104554
    },
    {
        "start station name":"Peck Slip & Front St",
        "start station latitude":40.707873,
        "start station longitude":-74.00167
    },
    {
        "start station name":"E 10 St & 5 Ave",
        "start station latitude":40.73331967,
        "start station longitude":-73.99510132
    },
    {
        "start station name":"Grand Army Plaza & Central Park S",
        "start station latitude":40.7643971,
        "start station longitude":-73.97371465
    },
    {
        "start station name":"Greenwich Ave & 8 Ave",
        "start station latitude":40.7390169121,
        "start station longitude":-74.0026376103
    },
    {
        "start station name":"Broadway & E 14 St",
        "start station latitude":40.73454567,
        "start station longitude":-73.99074142
    },
    {
        "start station name":"Madison St & Montgomery St",
        "start station latitude":40.713126,
        "start station longitude":-73.984844
    },
    {
        "start station name":"Lafayette St & E 8 St",
        "start station latitude":40.7302066053,
        "start station longitude":-73.9910262823
    },
    {
        "start station name":"Pike St & E Broadway",
        "start station latitude":40.71406667,
        "start station longitude":-73.99293911
    },
    {
        "start station name":"Division St & Bowery",
        "start station latitude":40.71413089,
        "start station longitude":-73.9970468
    },
    {
        "start station name":"E 15 St & 3 Ave",
        "start station latitude":40.734232,
        "start station longitude":-73.986923
    },
    {
        "start station name":"E 2 St & Avenue B",
        "start station latitude":40.72217444,
        "start station longitude":-73.98368779
    },
    {
        "start station name":"Avenue D & E 3 St",
        "start station latitude":40.72082834,
        "start station longitude":-73.97793172
    },
    {
        "start station name":"Mercer St & Spring St",
        "start station latitude":40.72362738,
        "start station longitude":-73.99949601
    },
    {
        "start station name":"Broadway & Battery Pl",
        "start station latitude":40.70463334,
        "start station longitude":-74.01361706
    },
    {
        "start station name":"E 58 St & 3 Ave",
        "start station latitude":40.76095756,
        "start station longitude":-73.96724467
    },
    {
        "start station name":"Canal St & Rutgers St",
        "start station latitude":40.71427487,
        "start station longitude":-73.98990025
    },
    {
        "start station name":"St James Pl & Oliver St",
        "start station latitude":40.71307916,
        "start station longitude":-73.99851193
    },
    {
        "start station name":"Murray St & West St",
        "start station latitude":40.7149787,
        "start station longitude":-74.013012
    },
    {
        "start station name":"Norfolk St & Broome St",
        "start station latitude":40.7172274,
        "start station longitude":-73.98802084
    },
    {
        "start station name":"Allen St & Stanton St",
        "start station latitude":40.722055,
        "start station longitude":-73.989111
    },
    {
        "start station name":"South St & Gouverneur Ln",
        "start station latitude":40.70355377,
        "start station longitude":-74.00670227
    },
    {
        "start station name":"Fulton St & William St",
        "start station latitude":40.70955958,
        "start station longitude":-74.00653609
    },
    {
        "start station name":"E 6 St & Avenue B",
        "start station latitude":40.72453734,
        "start station longitude":-73.98185424
    },
    {
        "start station name":"Fulton St & Broadway",
        "start station latitude":40.711066,
        "start station longitude":-74.009447
    },
    {
        "start station name":"Leonard St & Church St",
        "start station latitude":40.717571,
        "start station longitude":-74.005549
    },
    {
        "start station name":"E 19 St & 3 Ave",
        "start station latitude":40.73624527,
        "start station longitude":-73.98473765
    },
    {
        "start station name":"E 11 St & 1 Ave",
        "start station latitude":40.72953837,
        "start station longitude":-73.98426726
    },
    {
        "start station name":"Vesey Pl & River Terrace",
        "start station latitude":40.7153379,
        "start station longitude":-74.01658354
    },
    {
        "start station name":"Watts St & Greenwich St",
        "start station latitude":40.72405549,
        "start station longitude":-74.00965965
    },
    {
        "start station name":"Reade St & Broadway",
        "start station latitude":40.71450451,
        "start station longitude":-74.00562789
    },
    {
        "start station name":"Pike St & Monroe St",
        "start station latitude":40.71173107,
        "start station longitude":-73.99193043
    },
    {
        "start station name":"Cherry St",
        "start station latitude":40.71219906,
        "start station longitude":-73.97948148
    },
    {
        "start station name":"W 20 St & 7 Ave",
        "start station latitude":40.74238787,
        "start station longitude":-73.99726235
    },
    {
        "start station name":"Washington Pl & Broadway",
        "start station latitude":40.72903917,
        "start station longitude":-73.99404649
    },
    {
        "start station name":"Sullivan St & Washington Sq",
        "start station latitude":40.73047747,
        "start station longitude":-73.99906065
    },
    {
        "start station name":"Old Slip & Front St",
        "start station latitude":40.7037992,
        "start station longitude":-74.00838676
    },
    {
        "start station name":"Avenue D & E 12 St",
        "start station latitude":40.72580614,
        "start station longitude":-73.97422494
    },
    {
        "start station name":"Madison St & Clinton St",
        "start station latitude":40.71269042,
        "start station longitude":-73.98776323
    },
    {
        "start station name":"Stanton St & Mangin St",
        "start station latitude":40.71782143,
        "start station longitude":-73.97628939
    },
    {
        "start station name":"Columbia St & Rivington St",
        "start station latitude":40.71739973,
        "start station longitude":-73.98016555
    },
    {
        "start station name":"Bank St & Hudson St",
        "start station latitude":40.73652889,
        "start station longitude":-74.00618026
    },
    {
        "start station name":"Greenwich St & W Houston St",
        "start station latitude":40.728846,
        "start station longitude":-74.008591
    },
    {
        "start station name":"Rivington St & Ridge St",
        "start station latitude":40.71850211,
        "start station longitude":-73.98329859
    },
    {
        "start station name":"Clinton St & Grand St",
        "start station latitude":40.71559509,
        "start station longitude":-73.9870295
    },
    {
        "start station name":"Front St & Maiden Ln",
        "start station latitude":40.70530954,
        "start station longitude":-74.00612572
    },
    {
        "start station name":"Bayard St & Baxter St",
        "start station latitude":40.71602118,
        "start station longitude":-73.99974372
    },
    {
        "start station name":"Bialystoker Pl & Delancey St",
        "start station latitude":40.71622644,
        "start station longitude":-73.98261206
    },
    {
        "start station name":"Christopher St & Greenwich St",
        "start station latitude":40.73291553,
        "start station longitude":-74.00711384
    },
    {
        "start station name":"E 47 St & Park Ave",
        "start station latitude":40.75510267,
        "start station longitude":-73.97498696
    },
    {
        "start station name":"William St & Pine St",
        "start station latitude":40.70717936,
        "start station longitude":-74.00887308
    },
    {
        "start station name":"Allen St & Hester St",
        "start station latitude":40.71605866,
        "start station longitude":-73.99190759
    },
    {
        "start station name":"Broadway & W 37 St",
        "start station latitude":40.75172632,
        "start station longitude":-73.98753523
    },
    {
        "start station name":"West Thames St",
        "start station latitude":40.70834698,
        "start station longitude":-74.01713445
    },
    {
        "start station name":"Carmine St & 6 Ave",
        "start station latitude":40.73038599,
        "start station longitude":-74.00214988
    },
    {
        "start station name":"Washington Pl & 6 Ave",
        "start station latitude":40.73224119,
        "start station longitude":-74.00026394
    },
    {
        "start station name":"John St & William St",
        "start station latitude":40.70862144,
        "start station longitude":-74.00722156
    },
    {
        "start station name":"6 Ave & Canal St",
        "start station latitude":40.72243797,
        "start station longitude":-74.00566443
    },
    {
        "start station name":"W 31 St & 7 Ave",
        "start station latitude":40.749156,
        "start station longitude":-73.9916
    },
    {
        "start station name":"W 4 St & 7 Ave S",
        "start station latitude":40.73401143,
        "start station longitude":-74.00293877
    },
    {
        "start station name":"University Pl & E 14 St",
        "start station latitude":40.73492695,
        "start station longitude":-73.99200509
    },
    {
        "start station name":"Greenwich Ave & Charles St",
        "start station latitude":40.735238,
        "start station longitude":-74.000271
    },
    {
        "start station name":"E 55 St & 2 Ave",
        "start station latitude":40.75797322,
        "start station longitude":-73.96603308
    },
    {
        "start station name":"Centre St & Worth St",
        "start station latitude":40.71494807,
        "start station longitude":-74.00234482
    },
    {
        "start station name":"Centre St & Chambers St",
        "start station latitude":40.71273266,
        "start station longitude":-74.0046073
    },
    {
        "start station name":"W 26 St & 10 Ave",
        "start station latitude":40.749717753,
        "start station longitude":-74.002950346
    },
    {
        "start station name":"E 5 St & Avenue C",
        "start station latitude":40.72299208,
        "start station longitude":-73.97995466
    },
    {
        "start station name":"E 9 St & Avenue C",
        "start station latitude":40.72521311,
        "start station longitude":-73.97768752
    },
    {
        "start station name":"Pitt St & Stanton St",
        "start station latitude":40.71926081,
        "start station longitude":-73.98178024
    },
    {
        "start station name":"Allen St & Rivington St",
        "start station latitude":40.72019576,
        "start station longitude":-73.98997825
    },
    {
        "start station name":"Broadway & E 22 St",
        "start station latitude":40.7403432,
        "start station longitude":-73.98955109
    },
    {
        "start station name":"E 2 St & 2 Ave",
        "start station latitude":40.72502876,
        "start station longitude":-73.99069656
    },
    {
        "start station name":"Washington St & Gansevoort St",
        "start station latitude":40.739323,
        "start station longitude":-74.008119
    },
    {
        "start station name":"Market St & Cherry St",
        "start station latitude":40.71076228,
        "start station longitude":-73.99400398
    },
    {
        "start station name":"Suffolk St & Stanton St",
        "start station latitude":40.72066442,
        "start station longitude":-73.98517977
    },
    {
        "start station name":"E 6 St & Avenue D",
        "start station latitude":40.72228087,
        "start station longitude":-73.97668709
    },
    {
        "start station name":"Forsyth St & Canal St",
        "start station latitude":40.7158155,
        "start station longitude":-73.99422366
    },
    {
        "start station name":"Pearl St & Hanover Square",
        "start station latitude":40.7047177,
        "start station longitude":-74.00926027
    },
    {
        "start station name":"Barclay St & Church St",
        "start station latitude":40.71291224,
        "start station longitude":-74.01020234
    },
    {
        "start station name":"W 59 St & 10 Ave",
        "start station latitude":40.770513,
        "start station longitude":-73.988038
    },
    {
        "start station name":"W 54 St & 9 Ave",
        "start station latitude":40.76584941,
        "start station longitude":-73.98690506
    },
    {
        "start station name":"West St & Chambers St",
        "start station latitude":40.71754834,
        "start station longitude":-74.01322069
    },
    {
        "start station name":"Bus Slip & State St",
        "start station latitude":40.701907,
        "start station longitude":-74.013942
    },
    {
        "start station name":"E 7 St & Avenue A",
        "start station latitude":40.72621788,
        "start station longitude":-73.98379855
    },
    {
        "start station name":"9 Ave & W 18 St",
        "start station latitude":40.74317449,
        "start station longitude":-74.00366443
    },
    {
        "start station name":"W 21 St & 6 Ave",
        "start station latitude":40.74173969,
        "start station longitude":-73.99415556
    },
    {
        "start station name":"St Marks Pl & 1 Ave",
        "start station latitude":40.72779126,
        "start station longitude":-73.98564945
    },
    {
        "start station name":"E 4 St & 2 Ave",
        "start station latitude":40.7262807,
        "start station longitude":-73.98978041
    },
    {
        "start station name":"E 45 St & 3 Ave",
        "start station latitude":40.75255434,
        "start station longitude":-73.97282625
    },
    {
        "start station name":"E 52 St & 2 Ave",
        "start station latitude":40.756014,
        "start station longitude":-73.967416
    },
    {
        "start station name":"W 27 St & 7 Ave",
        "start station latitude":40.746647,
        "start station longitude":-73.993915
    },
    {
        "start station name":"E 10 St & Avenue A",
        "start station latitude":40.72740794,
        "start station longitude":-73.98142006
    },
    {
        "start station name":"W 24 St & 7 Ave",
        "start station latitude":40.74487634,
        "start station longitude":-73.99529885
    },
    {
        "start station name":"8 Ave & W 52 St",
        "start station latitude":40.76370739,
        "start station longitude":-73.9851615
    },
    {
        "start station name":"W 37 St & 10 Ave",
        "start station latitude":40.75660359,
        "start station longitude":-73.9979009
    },
    {
        "start station name":"W 49 St & 8 Ave",
        "start station latitude":40.76227205,
        "start station longitude":-73.98788205
    },
    {
        "start station name":"W 22 St & 8 Ave",
        "start station latitude":40.74475148,
        "start station longitude":-73.99915362
    },
    {
        "start station name":"E 51 St & 1 Ave",
        "start station latitude":40.75455731,
        "start station longitude":-73.96592976
    },
    {
        "start station name":"1 Ave & E 44 St",
        "start station latitude":40.75001986,
        "start station longitude":-73.96905301
    },
    {
        "start station name":"E 53 St & Madison Ave",
        "start station latitude":40.7597108,
        "start station longitude":-73.97402311
    },
    {
        "start station name":"11 Ave & W 27 St",
        "start station latitude":40.751396,
        "start station longitude":-74.005226
    },
    {
        "start station name":"W 20 St & 11 Ave",
        "start station latitude":40.746745,
        "start station longitude":-74.007756
    },
    {
        "start station name":"E 20 St & 2 Ave",
        "start station latitude":40.73587678,
        "start station longitude":-73.98205027
    },
    {
        "start station name":"W 22 St & 10 Ave",
        "start station latitude":40.74691959,
        "start station longitude":-74.00451887
    },
    {
        "start station name":"Broadway & W 41 St",
        "start station latitude":40.75513557,
        "start station longitude":-73.98658032
    },
    {
        "start station name":"W 25 St & 6 Ave",
        "start station latitude":40.74395411,
        "start station longitude":-73.99144871
    },
    {
        "start station name":"Broadway & W 56 St",
        "start station latitude":40.7652654,
        "start station longitude":-73.98192338
    },
    {
        "start station name":"Broadway & W 53 St",
        "start station latitude":40.76344058,
        "start station longitude":-73.98268129
    },
    {
        "start station name":"W 20 St & 8 Ave",
        "start station latitude":40.74345335,
        "start station longitude":-74.00004031
    },
    {
        "start station name":"E 32 St & Park Ave",
        "start station latitude":40.7457121,
        "start station longitude":-73.98194829
    },
    {
        "start station name":"Rivington St & Chrystie St",
        "start station latitude":40.72110063,
        "start station longitude":-73.9919254
    },
    {
        "start station name":"5 Ave & E 29 St",
        "start station latitude":40.7451677,
        "start station longitude":-73.98683077
    },
    {
        "start station name":"E 31 St & 3 Ave",
        "start station latitude":40.74394314,
        "start station longitude":-73.97966069
    },
    {
        "start station name":"W 41 St & 8 Ave",
        "start station latitude":40.75640548,
        "start station longitude":-73.9900262
    },
    {
        "start station name":"11 Ave & W 41 St",
        "start station latitude":40.76030096,
        "start station longitude":-73.99884222
    },
    {
        "start station name":"9 Ave & W 45 St",
        "start station latitude":40.76019252,
        "start station longitude":-73.9912551
    },
    {
        "start station name":"W 53 St & 10 Ave",
        "start station latitude":40.76669671,
        "start station longitude":-73.99061728
    },
    {
        "start station name":"W 15 St & 7 Ave",
        "start station latitude":40.73935542,
        "start station longitude":-73.99931783
    },
    {
        "start station name":"E 12 St & 3 Ave",
        "start station latitude":40.73223272,
        "start station longitude":-73.98889957
    },
    {
        "start station name":"W 44 St & 5 Ave",
        "start station latitude":40.75500254,
        "start station longitude":-73.98014437
    },
    {
        "start station name":"W 37 St & 5 Ave",
        "start station latitude":40.75038009,
        "start station longitude":-73.98338988
    },
    {
        "start station name":"Broadway & W 29 St",
        "start station latitude":40.7462009,
        "start station longitude":-73.98855723
    },
    {
        "start station name":"E 20 St & FDR Drive",
        "start station latitude":40.73314259,
        "start station longitude":-73.97573881
    },
    {
        "start station name":"10 Ave & W 28 St",
        "start station latitude":40.75066386,
        "start station longitude":-74.00176802
    },
    {
        "start station name":"8 Ave & W 33 St",
        "start station latitude":40.751551,
        "start station longitude":-73.993934
    },
    {
        "start station name":"E 24 St & Park Ave S",
        "start station latitude":40.74096374,
        "start station longitude":-73.98602213
    },
    {
        "start station name":"W 33 St & 7 Ave",
        "start station latitude":40.75019995,
        "start station longitude":-73.99093085
    },
    {
        "start station name":"W 45 St & 6 Ave",
        "start station latitude":40.7568001,
        "start station longitude":-73.98291153
    },
    {
        "start station name":"W 26 St & 8 Ave",
        "start station latitude":40.74734825,
        "start station longitude":-73.99723551
    },
    {
        "start station name":"W 47 St & 10 Ave",
        "start station latitude":40.76269882,
        "start station longitude":-73.99301222
    },
    {
        "start station name":"E 16 St & 5 Ave",
        "start station latitude":40.73726186,
        "start station longitude":-73.99238967
    },
    {
        "start station name":"E 17 St & Broadway",
        "start station latitude":40.73704984,
        "start station longitude":-73.99009296
    },
    {
        "start station name":"Broadway & W 60 St",
        "start station latitude":40.76915505,
        "start station longitude":-73.98191841
    },
    {
        "start station name":"Broadway & W 51 St",
        "start station latitude":40.76228826,
        "start station longitude":-73.98336183
    },
    {
        "start station name":"FDR Drive & E 35 St",
        "start station latitude":40.744219,
        "start station longitude":-73.97121214
    },
    {
        "start station name":"Henry St & Grand St",
        "start station latitude":40.714215,
        "start station longitude":-73.981346
    },
    {
        "start station name":"E 20 St & Park Ave",
        "start station latitude":40.73827428,
        "start station longitude":-73.98751968
    },
    {
        "start station name":"1 Ave & E 16 St",
        "start station latitude":40.73221853,
        "start station longitude":-73.98165557
    },
    {
        "start station name":"E 25 St & 2 Ave",
        "start station latitude":40.73912601,
        "start station longitude":-73.97973776
    },
    {
        "start station name":"W 46 St & 11 Ave",
        "start station latitude":40.76341379,
        "start station longitude":-73.99667444
    },
    {
        "start station name":"W 56 St & 10 Ave",
        "start station latitude":40.768254,
        "start station longitude":-73.988639
    },
    {
        "start station name":"12 Ave & W 40 St",
        "start station latitude":40.76087502,
        "start station longitude":-74.00277668
    },
    {
        "start station name":"W 43 St & 10 Ave",
        "start station latitude":40.76009437,
        "start station longitude":-73.99461843
    },
    {
        "start station name":"E 47 St & 1 Ave",
        "start station latitude":40.75206862,
        "start station longitude":-73.96784384
    },
    {
        "start station name":"Pershing Square South",
        "start station latitude":40.751581,
        "start station longitude":-73.97791
    },
    {
        "start station name":"E 39 St & 2 Ave",
        "start station latitude":40.74780373,
        "start station longitude":-73.9734419
    },
    {
        "start station name":"Pershing Square North",
        "start station latitude":40.751873,
        "start station longitude":-73.977706
    },
    {
        "start station name":"W 52 St & 5 Ave",
        "start station latitude":40.75992262,
        "start station longitude":-73.97648516
    },
    {
        "start station name":"E 51 St & Lexington Ave",
        "start station latitude":40.75714758,
        "start station longitude":-73.97207836
    },
    {
        "start station name":"W 38 St & 8 Ave",
        "start station latitude":40.75466591,
        "start station longitude":-73.99138152
    },
    {
        "start station name":"W 43 St & 6 Ave",
        "start station latitude":40.75527307,
        "start station longitude":-73.98316936
    },
    {
        "start station name":"W 34 St & 11 Ave",
        "start station latitude":40.75594159,
        "start station longitude":-74.0021163
    },
    {
        "start station name":"E 33 St & 5 Ave",
        "start station latitude":40.74765947,
        "start station longitude":-73.98490707
    },
    {
        "start station name":"2 Ave & E 31 St",
        "start station latitude":40.74290902,
        "start station longitude":-73.97706058
    },
    {
        "start station name":"W 42 St & 8 Ave",
        "start station latitude":40.7575699,
        "start station longitude":-73.99098507
    },
    {
        "start station name":"11 Ave & W 59 St",
        "start station latitude":40.7714967105,
        "start station longitude":-73.9904603362
    },
    {
        "start station name":"Forsyth St & Broome St",
        "start station latitude":40.71893904,
        "start station longitude":-73.99266288
    },
    {
        "start station name":"Broadway & W 38 St",
        "start station latitude":40.75299641,
        "start station longitude":-73.98721619
    },
    {
        "start station name":"Water - Whitehall Plaza",
        "start station latitude":40.70255065,
        "start station longitude":-74.0127234
    },
    {
        "start station name":"1 Ave & E 30 St",
        "start station latitude":40.74144387,
        "start station longitude":-73.97536082
    },
    {
        "start station name":"Lexington Ave & E 29 St",
        "start station latitude":40.7431155538,
        "start station longitude":-73.9821535349
    },
    {
        "start station name":"E 23 St & 1 Ave",
        "start station latitude":40.736502,
        "start station longitude":-73.97809472
    },
    {
        "start station name":"E 30 St & Park Ave S",
        "start station latitude":40.74444921,
        "start station longitude":-73.98303529
    },
    {
        "start station name":"1 Ave & E 18 St",
        "start station latitude":40.733812192,
        "start station longitude":-73.9805442095
    },
    {
        "start station name":"Central Park S & 6 Ave",
        "start station latitude":40.76590936,
        "start station longitude":-73.97634151
    },
    {
        "start station name":"Little West St & 1 Pl",
        "start station latitude":40.70569254,
        "start station longitude":-74.01677685
    },
    {
        "start station name":"Catherine St & Monroe St",
        "start station latitude":40.71117444,
        "start station longitude":-73.99682619
    },
    {
        "start station name":"E 27 St & 1 Ave",
        "start station latitude":40.739445,
        "start station longitude":-73.976806
    },
    {
        "start station name":"E 43 St & 2 Ave",
        "start station latitude":40.75022392,
        "start station longitude":-73.97121414
    },
    {
        "start station name":"W 45 St & 8 Ave",
        "start station latitude":40.75929124,
        "start station longitude":-73.98859651
    },
    {
        "start station name":"E 60 St & York Ave",
        "start station latitude":40.759107,
        "start station longitude":-73.959223
    },
    {
        "start station name":"E 55 St & Lexington Ave",
        "start station latitude":40.75968085,
        "start station longitude":-73.97031366
    },
    {
        "start station name":"South End Ave & Liberty St",
        "start station latitude":40.711512,
        "start station longitude":-74.015756
    },
    {
        "start station name":"E 68 St & 3 Ave",
        "start station latitude":40.7671284035,
        "start station longitude":-73.9622461796
    },
    {
        "start station name":"E 59 St & Madison Ave",
        "start station latitude":40.76350532,
        "start station longitude":-73.97109243
    },
    {
        "start station name":"3 Ave & E 62 St",
        "start station latitude":40.76312584,
        "start station longitude":-73.96526895
    },
    {
        "start station name":"E 75 St & 3 Ave",
        "start station latitude":40.77112927,
        "start station longitude":-73.95772297
    },
    {
        "start station name":"5 Ave & E 63 St",
        "start station latitude":40.766368,
        "start station longitude":-73.971518
    },
    {
        "start station name":"5 Ave & E 73 St",
        "start station latitude":40.77282817,
        "start station longitude":-73.96685276
    },
    {
        "start station name":"E 72 St & Park Ave",
        "start station latitude":40.7711828754,
        "start station longitude":-73.9640942216
    },
    {
        "start station name":"1 Ave & E 78 St",
        "start station latitude":40.77140426,
        "start station longitude":-73.9535166
    },
    {
        "start station name":"1 Ave & E 68 St",
        "start station latitude":40.76500525,
        "start station longitude":-73.95818491
    },
    {
        "start station name":"1 Ave & E 62 St",
        "start station latitude":40.7612274,
        "start station longitude":-73.96094022
    },
    {
        "start station name":"5 Ave & E 78 St",
        "start station latitude":40.7763214218,
        "start station longitude":-73.9642739296
    },
    {
        "start station name":"E 81 St & Park Ave",
        "start station latitude":40.77677702,
        "start station longitude":-73.9590097
    },
    {
        "start station name":"E 84 St & Park Ave",
        "start station latitude":40.77862688,
        "start station longitude":-73.95772073
    },
    {
        "start station name":"E 81 St & 3 Ave",
        "start station latitude":40.77573034,
        "start station longitude":-73.9567526
    },
    {
        "start station name":"E 84 St & 1 Ave",
        "start station latitude":40.77565541,
        "start station longitude":-73.95068615
    },
    {
        "start station name":"E 85 St & York Ave",
        "start station latitude":40.77536905,
        "start station longitude":-73.94803392
    },
    {
        "start station name":"E 81 St & York Ave",
        "start station latitude":40.7728384,
        "start station longitude":-73.94989233
    },
    {
        "start station name":"3 Ave & E 71 St",
        "start station latitude":40.76873687,
        "start station longitude":-73.96119945
    },
    {
        "start station name":"E 77 St & 3 Ave",
        "start station latitude":40.77314236,
        "start station longitude":-73.95856158
    },
    {
        "start station name":"Lexington Ave & E 63 St",
        "start station latitude":40.76440023,
        "start station longitude":-73.96648977
    },
    {
        "start station name":"E 72 St & York Ave",
        "start station latitude":40.76663814,
        "start station longitude":-73.95348296
    },
    {
        "start station name":"East End Ave & E 86 St",
        "start station latitude":40.77518615,
        "start station longitude":-73.94446054
    },
    {
        "start station name":"W 63 St & Broadway",
        "start station latitude":40.77163851,
        "start station longitude":-73.98261428
    },
    {
        "start station name":"W 67 St & Broadway",
        "start station latitude":40.77492513,
        "start station longitude":-73.98266566
    },
    {
        "start station name":"Central Park West & W 76 St",
        "start station latitude":40.77896784,
        "start station longitude":-73.97374737
    },
    {
        "start station name":"W 76 St & Columbus Ave",
        "start station latitude":40.7801839724,
        "start station longitude":-73.9772853255
    },
    {
        "start station name":"W 78 St & Broadway",
        "start station latitude":40.78339981,
        "start station longitude":-73.98093133
    },
    {
        "start station name":"Central Park West & W 68 St",
        "start station latitude":40.7734066,
        "start station longitude":-73.97782542
    },
    {
        "start station name":"Columbus Ave & W 72 St",
        "start station latitude":40.7770575,
        "start station longitude":-73.97898475
    },
    {
        "start station name":"Central Park West & W 72 St",
        "start station latitude":40.7757937668,
        "start station longitude":-73.9762057364
    },
    {
        "start station name":"Riverside Dr & W 72 St",
        "start station latitude":40.7805779901,
        "start station longitude":-73.9856243134
    },
    {
        "start station name":"Amsterdam Ave & W 73 St",
        "start station latitude":40.7796680901,
        "start station longitude":-73.9809304476
    },
    {
        "start station name":"Central Park West & W 85 St",
        "start station latitude":40.78472675,
        "start station longitude":-73.96961715
    },
    {
        "start station name":"Riverside Dr & W 82 St",
        "start station latitude":40.78720869,
        "start station longitude":-73.98128127
    },
    {
        "start station name":"W 84 St & Columbus Ave",
        "start station latitude":40.78499979,
        "start station longitude":-73.97283406
    },
    {
        "start station name":"Amsterdam Ave & W 82 St",
        "start station latitude":40.78524672,
        "start station longitude":-73.97667321
    },
    {
        "start station name":"W 74 St & Columbus Ave",
        "start station latitude":40.7785669,
        "start station longitude":-73.97754961
    },
    {
        "start station name":"Riverside Blvd & W 67 St",
        "start station latitude":40.7775070275,
        "start station longitude":-73.9888858795
    },
    {
        "start station name":"W 70 St & Amsterdam Ave",
        "start station latitude":40.77748046,
        "start station longitude":-73.98288594
    },
    {
        "start station name":"W 84 St & Broadway",
        "start station latitude":40.7867947,
        "start station longitude":-73.977112
    },
    {
        "start station name":"Riverside Dr & W 78 St",
        "start station latitude":40.78414472,
        "start station longitude":-73.98362492
    },
    {
        "start station name":"Yankee Ferry Terminal",
        "start station latitude":40.686931,
        "start station longitude":-74.016966
    },
    {
        "start station name":"E 55 St & 3 Ave",
        "start station latitude":40.7589965596,
        "start station longitude":-73.9686539769
    },
    {
        "start station name":"W 82 St & Central Park West",
        "start station latitude":40.78275,
        "start station longitude":-73.97137
    },
    {
        "start station name":"E 67 St & Park Ave",
        "start station latitude":40.7678008015,
        "start station longitude":-73.9659208059
    },
    {
        "start station name":"E 48 St & 5 Ave",
        "start station latitude":40.7572456791,
        "start station longitude":-73.9780591428
    },
    {
        "start station name":"E 41 St & Madison Ave",
        "start station latitude":40.7521652806,
        "start station longitude":-73.979921937
    },
    {
        "start station name":"W 42 St & Dyer Ave",
        "start station latitude":40.758984814,
        "start station longitude":-73.9937996864
    },
    {
        "start station name":"E 58 St & 1 Ave (NE Corner)",
        "start station latitude":40.7589238638,
        "start station longitude":-73.9622622728
    },
    {
        "start station name":"University Pl & E 8 St",
        "start station latitude":40.7314372409,
        "start station longitude":-73.9949034154
    },
    {
        "start station name":"NYCBS DEPOT - DELANCEY",
        "start station latitude":40.7164442313,
        "start station longitude":-73.9823305607
    },
    {
        "start station name":"Soissons Landing",
        "start station latitude":40.6923166072,
        "start station longitude":-74.014865756
    },
    {
        "start station name":"8 Ave & W 31 St",
        "start station latitude":40.750585347,
        "start station longitude":-73.9946848154
    },
    {
        "start station name":"Pier 40 - Hudson River Park",
        "start station latitude":40.7277140778,
        "start station longitude":-74.0112957358
    },
    {
        "start station name":"W 27 St & 10 Ave",
        "start station latitude":40.7501815633,
        "start station longitude":-74.0021842718
    },
    {
        "start station name":"9 Ave & W 28 St",
        "start station latitude":40.7493702419,
        "start station longitude":-73.9992338419
    },
    {
        "start station name":"Mercer St & Bleecker St",
        "start station latitude":40.7270636335,
        "start station longitude":-73.9966213703
    },
    {
        "start station name":"Cooper Square & Astor Pl",
        "start station latitude":40.7295149622,
        "start station longitude":-73.990752697
    },
    {
        "start station name":"5 Ave & E 88 St",
        "start station latitude":40.78307,
        "start station longitude":-73.95939
    },
    {
        "start station name":"W 89 St & Columbus Ave",
        "start station latitude":40.7882213,
        "start station longitude":-73.97041561
    },
    {
        "start station name":"E 88 St & Park Ave",
        "start station latitude":40.7814107002,
        "start station longitude":-73.9559590816
    },
    {
        "start station name":"W 87 St & Amsterdam Ave",
        "start station latitude":40.78839,
        "start station longitude":-73.9747
    },
    {
        "start station name":"E 89 St & 3 Ave",
        "start station latitude":40.7806284,
        "start station longitude":-73.9521667
    },
    {
        "start station name":"E 88 St & 1 Ave",
        "start station latitude":40.778301,
        "start station longitude":-73.9488134
    },
    {
        "start station name":"W 90 St & Amsterdam Ave",
        "start station latitude":40.790179481,
        "start station longitude":-73.972889185
    },
    {
        "start station name":"E 89 St & York Ave",
        "start station latitude":40.7779453,
        "start station longitude":-73.946041
    },
    {
        "start station name":"5 Ave & E 93 St",
        "start station latitude":40.7857851,
        "start station longitude":-73.957481
    },
    {
        "start station name":"W 92 St & Broadway",
        "start station latitude":40.7921,
        "start station longitude":-73.9739
    },
    {
        "start station name":"E 91 St & Park Ave",
        "start station latitude":40.7835016,
        "start station longitude":-73.955327
    },
    {
        "start station name":"Central Park W & W 96 St",
        "start station latitude":40.79127,
        "start station longitude":-73.964839
    },
    {
        "start station name":"E 93 St & 2 Ave",
        "start station latitude":40.7824541753,
        "start station longitude":-73.9489196241
    },
    {
        "start station name":"E 98 St & Park Ave",
        "start station latitude":40.78813,
        "start station longitude":-73.95206
    },
    {
        "start station name":"Columbus Ave & W 95 St",
        "start station latitude":40.7919557,
        "start station longitude":-73.968087
    },
    {
        "start station name":"Columbus Ave & W 103 St",
        "start station latitude":40.7969347,
        "start station longitude":-73.9643412291
    },
    {
        "start station name":"E 91 St & 2 Ave",
        "start station latitude":40.7811222993,
        "start station longitude":-73.9496558905
    },
    {
        "start station name":"West End Ave & W 94 St",
        "start station latitude":40.7941654,
        "start station longitude":-73.974124
    },
    {
        "start station name":"E 97 St & 3 Ave",
        "start station latitude":40.7859201,
        "start station longitude":-73.94860294
    },
    {
        "start station name":"1 Ave & E 94 St",
        "start station latitude":40.7817212,
        "start station longitude":-73.94594
    },
    {
        "start station name":"W 95 St & Broadway",
        "start station latitude":40.7937704,
        "start station longitude":-73.971888
    },
    {
        "start station name":"2 Ave & E 96 St",
        "start station latitude":40.7839636,
        "start station longitude":-73.9471673
    },
    {
        "start station name":"Central Park West & W 100 St",
        "start station latitude":40.7940666082,
        "start station longitude":-73.9628684521
    },
    {
        "start station name":"W 106 St & Central Park West",
        "start station latitude":40.7981856,
        "start station longitude":-73.9605909006
    },
    {
        "start station name":"3 Ave & E 100 St",
        "start station latitude":40.7877214,
        "start station longitude":-73.94728331
    },
    {
        "start station name":"W 100 St & Manhattan Ave",
        "start station latitude":40.795,
        "start station longitude":-73.9645
    },
    {
        "start station name":"Riverside Dr & W 104 St",
        "start station latitude":40.8013434,
        "start station longitude":-73.9711457439
    },
    {
        "start station name":"E 97 St & Madison Ave",
        "start station latitude":40.787801,
        "start station longitude":-73.953559
    },
    {
        "start station name":"2 Ave & E 99 St",
        "start station latitude":40.7862586,
        "start station longitude":-73.94552579
    },
    {
        "start station name":"Central Park West & W 102 St",
        "start station latitude":40.795346,
        "start station longitude":-73.96186
    },
    {
        "start station name":"W 107 St & Columbus Ave",
        "start station latitude":40.7997568,
        "start station longitude":-73.9621128676
    },
    {
        "start station name":"Madison Ave & E 99 St",
        "start station latitude":40.7894854155,
        "start station longitude":-73.9524292946
    },
    {
        "start station name":"W 100 St & Broadway",
        "start station latitude":40.7973721,
        "start station longitude":-73.97041192
    },
    {
        "start station name":"E 102 St & 1 Ave",
        "start station latitude":40.7869946,
        "start station longitude":-73.94164802
    },
    {
        "start station name":"E 66 St & Madison Ave",
        "start station latitude":40.7680088931,
        "start station longitude":-73.9684528112
    },
    {
        "start station name":"Amsterdam Ave & W 66 St",
        "start station latitude":40.7746671,
        "start station longitude":-73.98470567
    },
    {
        "start station name":"W 106 St & Amsterdam Ave",
        "start station latitude":40.8008363,
        "start station longitude":-73.9664492472
    },
    {
        "start station name":"E 68 St & Madison Ave",
        "start station latitude":40.7691572,
        "start station longitude":-73.96703464
    },
    {
        "start station name":"Amsterdam Ave & W 79 St",
        "start station latitude":40.7829391,
        "start station longitude":-73.9786517
    },
    {
        "start station name":"Madison Ave & E 82 St",
        "start station latitude":40.7781314,
        "start station longitude":-73.96069399
    },
    {
        "start station name":"E 102 St & Park Ave",
        "start station latitude":40.7904828,
        "start station longitude":-73.95033068
    },
    {
        "start station name":"West End Ave & W 107 St",
        "start station latitude":40.8021174,
        "start station longitude":-73.9681805305
    },
    {
        "start station name":"5 Ave & E 103 St",
        "start station latitude":40.7922553,
        "start station longitude":-73.95249933
    },
    {
        "start station name":"E 82 St & East End Ave",
        "start station latitude":40.7724607,
        "start station longitude":-73.9468208
    },
    {
        "start station name":"E 78 St & 2 Ave",
        "start station latitude":40.7727966,
        "start station longitude":-73.95577801
    },
    {
        "start station name":"E 74 St & 1 Ave",
        "start station latitude":40.7689738,
        "start station longitude":-73.95482273
    },
    {
        "start station name":"Central Park North & Adam Clayton Powell Blvd",
        "start station latitude":40.799484,
        "start station longitude":-73.955613
    },
    {
        "start station name":"3 Ave & E 72 St",
        "start station latitude":40.7699426,
        "start station longitude":-73.96060712
    },
    {
        "start station name":"E 65 St & 2 Ave",
        "start station latitude":40.7647185194,
        "start station longitude":-73.9622206986
    },
    {
        "start station name":"E 76 St & Park Ave",
        "start station latitude":40.773763,
        "start station longitude":-73.96222088
    },
    {
        "start station name":"E 103 St & Lexington Ave",
        "start station latitude":40.7903051,
        "start station longitude":-73.94755757
    },
    {
        "start station name":"Cathedral Pkwy & Broadway",
        "start station latitude":40.804213,
        "start station longitude":-73.96699104
    },
    {
        "start station name":"E 106 St & Madison Ave",
        "start station latitude":40.7934337,
        "start station longitude":-73.94945003
    },
    {
        "start station name":"E 109 St & 3 Ave",
        "start station latitude":40.79329668,
        "start station longitude":-73.9432083
    },
    {
        "start station name":"E 106 St & 1 Ave",
        "start station latitude":40.7892529,
        "start station longitude":-73.93956237
    },
    {
        "start station name":"E 110 St & Madison Ave",
        "start station latitude":40.7961535,
        "start station longitude":-73.94782145
    },
    {
        "start station name":"E 106 St & Lexington Ave",
        "start station latitude":40.791976,
        "start station longitude":-73.945993
    },
    {
        "start station name":"2 Ave & E 104 St",
        "start station latitude":40.7892105,
        "start station longitude":-73.94370784
    },
    {
        "start station name":"Lafayette St & Jersey St",
        "start station latitude":40.7243052725,
        "start station longitude":-73.9960098267
    },
    {
        "start station name":"W 88 St & West End Ave",
        "start station latitude":40.7902541733,
        "start station longitude":-73.9771834016
    },
    {
        "start station name":"Grand St & Elizabeth St",
        "start station latitude":40.718822,
        "start station longitude":-73.99596
    },
    {
        "start station name":"Riverside Dr & W 91 St",
        "start station latitude":40.7931348099,
        "start station longitude":-73.9770036936
    },
    {
        "start station name":"10 Hudson Yards",
        "start station latitude":40.752957,
        "start station longitude":-74.00264
    },
    {
        "start station name":"W 52 St & 6 Ave",
        "start station latitude":40.7613298312,
        "start station longitude":-73.979820013
    },
    {
        "start station name":"E 53 St & 3 Ave",
        "start station latitude":40.7576322774,
        "start station longitude":-73.9693057537
    },
    {
        "start station name":"Murray St & Greenwich St",
        "start station latitude":40.7148515053,
        "start station longitude":-74.0112233162
    },
    {
        "start station name":"E 16 St & Irving Pl",
        "start station latitude":40.7353670556,
        "start station longitude":-73.9879739285
    },
    {
        "start station name":"W Broadway & Spring Street",
        "start station latitude":40.7249467236,
        "start station longitude":-74.0016585588
    },
    {
        "start station name":"W 15 St & 10 Ave",
        "start station latitude":40.7427538287,
        "start station longitude":-74.007473588
    },
    {
        "start station name":"Picnic Point",
        "start station latitude":40.6851255952,
        "start station longitude":-74.0253531933
    },
    {
        "start station name":"E 116 St & 2 Ave",
        "start station latitude":40.796879,
        "start station longitude":-73.937261
    },
    {
        "start station name":"E 118 St & 1 Ave",
        "start station latitude":40.79747,
        "start station longitude":-73.93504
    },
    {
        "start station name":"E 118 St & Park Ave",
        "start station latitude":40.8005385,
        "start station longitude":-73.9419949
    },
    {
        "start station name":"E 118 St & 3 Ave",
        "start station latitude":40.799139,
        "start station longitude":-73.9389152
    },
    {
        "start station name":"E 115 St & Lexington Ave",
        "start station latitude":40.797911,
        "start station longitude":-73.9423
    },
    {
        "start station name":"E 114 St & 1 Ave",
        "start station latitude":40.7945663,
        "start station longitude":-73.9362541
    },
    {
        "start station name":"1 Ave & E 110 St",
        "start station latitude":40.7923272,
        "start station longitude":-73.9383
    },
    {
        "start station name":"Pleasant Ave & E 116 St",
        "start station latitude":40.7949879,
        "start station longitude":-73.9333349
    },
    {
        "start station name":"Pleasant Ave & E 120 St",
        "start station latitude":40.7974772,
        "start station longitude":-73.9311847
    },
    {
        "start station name":"2 Ave & E 122 St",
        "start station latitude":40.8006721,
        "start station longitude":-73.9349
    },
    {
        "start station name":"E 115 St & Madison Ave",
        "start station latitude":40.7989445,
        "start station longitude":-73.944846
    },
    {
        "start station name":"E 118 St & Madison Ave",
        "start station latitude":40.8014866,
        "start station longitude":-73.9442507
    },
    {
        "start station name":"Lexington Ave & E 111 St",
        "start station latitude":40.7954121,
        "start station longitude":-73.9441232
    },
    {
        "start station name":"Madison Ave & E 120 St",
        "start station latitude":40.80295,
        "start station longitude":-73.942954
    },
    {
        "start station name":"E 123 St & Lexington Ave",
        "start station latitude":40.8029263,
        "start station longitude":-73.9379
    },
    {
        "start station name":"Lexington Ave & E 127 St",
        "start station latitude":40.805726,
        "start station longitude":-73.936322
    },
    {
        "start station name":"Lexington Ave & E 120 St",
        "start station latitude":40.8013066,
        "start station longitude":-73.9398167
    },
    {
        "start station name":"Park Ave & E 124 St",
        "start station latitude":40.8045555,
        "start station longitude":-73.9396861
    },
    {
        "start station name":"St Nicholas Ave & Manhattan Ave",
        "start station latitude":40.809725,
        "start station longitude":-73.953149
    },
    {
        "start station name":"Lenox Ave & W 115 St",
        "start station latitude":40.8011939,
        "start station longitude":-73.9500739
    },
    {
        "start station name":"Adam Clayton Powell Blvd & W 123 St",
        "start station latitude":40.8078316,
        "start station longitude":-73.949373
    },
    {
        "start station name":"Adam Clayton Powell Blvd & W 115 St",
        "start station latitude":40.802535,
        "start station longitude":-73.9532423
    },
    {
        "start station name":"Lenox Ave & W 126 St",
        "start station latitude":40.808442,
        "start station longitude":-73.9452087
    },
    {
        "start station name":"Adam Clayton Powell Blvd & W 118 St",
        "start station latitude":40.804372,
        "start station longitude":-73.951475
    },
    {
        "start station name":"Lenox Ave & W 111 St",
        "start station latitude":40.7987859,
        "start station longitude":-73.9523
    },
    {
        "start station name":"5 Ave & E 126 St",
        "start station latitude":40.80698,
        "start station longitude":-73.941747
    },
    {
        "start station name":"Lenox Ave & W 130 St",
        "start station latitude":40.8107922,
        "start station longitude":-73.9430681
    },
    {
        "start station name":"Frederick Douglass Blvd & W 129 St",
        "start station latitude":40.8125511,
        "start station longitude":-73.9492286
    },
    {
        "start station name":"St. Nicholas Ave & W 126 St",
        "start station latitude":40.8114323,
        "start station longitude":-73.9518776
    },
    {
        "start station name":"Frederick Douglass Blvd & W 117 St",
        "start station latitude":40.805159,
        "start station longitude":-73.954692
    },
    {
        "start station name":"Mt Morris Park W & W 120 St",
        "start station latitude":40.804038,
        "start station longitude":-73.945925
    },
    {
        "start station name":"W 116 St & Broadway",
        "start station latitude":40.8082,
        "start station longitude":-73.9641
    },
    {
        "start station name":"W 110 St & Amsterdam Ave",
        "start station latitude":40.802692,
        "start station longitude":-73.96295
    },
    {
        "start station name":"W 116 St & Amsterdam Ave",
        "start station latitude":40.8067581,
        "start station longitude":-73.9607082
    },
    {
        "start station name":"Morningside Ave & W 123 St",
        "start station latitude":40.81,
        "start station longitude":-73.9551508
    },
    {
        "start station name":"Amsterdam Ave & W 125 St",
        "start station latitude":40.813358,
        "start station longitude":-73.956461
    },
    {
        "start station name":"Amsterdam Ave & W 119 St",
        "start station latitude":40.8086249,
        "start station longitude":-73.9596214
    },
    {
        "start station name":"Morningside Dr & Amsterdam Ave",
        "start station latitude":40.8102850631,
        "start station longitude":-73.9573645592
    },
    {
        "start station name":"Broadway & W 122 St",
        "start station latitude":40.8120562,
        "start station longitude":-73.9612547
    },
    {
        "start station name":"Broadway & Moylan Pl",
        "start station latitude":40.8143256,
        "start station longitude":-73.9590255
    },
    {
        "start station name":"3 Ave & E 112 St",
        "start station latitude":40.795508,
        "start station longitude":-73.941606
    },
    {
        "start station name":"W 113 St & Broadway",
        "start station latitude":40.805973,
        "start station longitude":-73.964928
    },
    {
        "start station name":"Frederick Douglass Blvd & W 112 St",
        "start station latitude":40.801694,
        "start station longitude":-73.957145
    },
    {
        "start station name":"E 128 St & Madison Ave",
        "start station latitude":40.80756,
        "start station longitude":-73.939182
    },
    {
        "start station name":"W 120 St & Claremont Ave",
        "start station latitude":40.8109494,
        "start station longitude":-73.9634
    },
    {
        "start station name":"Lenox Ave & W 117 St",
        "start station latitude":40.8025566,
        "start station longitude":-73.9490782
    },
    {
        "start station name":"Adam Clayton Powell Blvd & W 126 St",
        "start station latitude":40.8094953478,
        "start station longitude":-73.9477649331
    },
    {
        "start station name":"Frederick Douglass Blvd & W 115 St",
        "start station latitude":40.8038654,
        "start station longitude":-73.9559308
    },
    {
        "start station name":"Broadway & W 25 St",
        "start station latitude":40.7428687731,
        "start station longitude":-73.9891862869
    },
    {
        "start station name":"W 129 St & Convent Ave",
        "start station latitude":40.8143944379,
        "start station longitude":-73.9532473683
    },
    {
        "start station name":"E 2 St & Avenue A",
        "start station latitude":40.7230774907,
        "start station longitude":-73.9858362079
    },
    {
        "start station name":"W 18 St & 9 Ave",
        "start station latitude":40.7435337325,
        "start station longitude":-74.00367558
    },
    {
        "start station name":"W 16 St & 8 Ave",
        "start station latitude":40.741021509,
        "start station longitude":-74.0013849735
    },
    {
        "start station name":"North Moore St & Greenwich St",
        "start station latitude":40.7201952144,
        "start station longitude":-74.0103006363
    },
    {
        "start station name":"E 81 St & 2 Ave",
        "start station latitude":40.774779449,
        "start station longitude":-73.9542746544
    },
    {
        "start station name":"3 Ave & E 95 St",
        "start station latitude":40.7845967988,
        "start station longitude":-73.9496853948
    },
    {
        "start station name":"E 43 St & 5 Ave",
        "start station latitude":40.7541208108,
        "start station longitude":-73.9802518487
    },
    {
        "start station name":"Gansevoort St & Hudson St",
        "start station latitude":40.7394482013,
        "start station longitude":-74.0050703287
    },
    {
        "start station name":"E 33 St & 1 Ave",
        "start station latitude":40.7432268143,
        "start station longitude":-73.9744978398
    },
    {
        "start station name":"W 104 St & Amsterdam Ave",
        "start station latitude":40.7990413929,
        "start station longitude":-73.9664947987
    },
    {
        "start station name":"Park Pl & Church St",
        "start station latitude":40.7133418428,
        "start station longitude":-74.0093551576
    },
    {
        "start station name":"W 64 St & Thelonious Monk Circle",
        "start station latitude":40.7751595343,
        "start station longitude":-73.9891869575
    },
    {
        "start station name":"W 50 St & 9 Ave",
        "start station latitude":40.763604678,
        "start station longitude":-73.9891795814
    },
    {
        "start station name":"Cliff St & Fulton St (Old)",
        "start station latitude":40.7083179437,
        "start station longitude":-74.0050408244
    },
    {
        "start station name":"Lexington Ave & E 26 St",
        "start station latitude":40.741459,
        "start station longitude":-73.983293
    },
    {
        "start station name":"W 13 St & 5 Ave",
        "start station latitude":40.735445,
        "start station longitude":-73.99431
    },
    {
        "start station name":"W 15 St & 6 Ave",
        "start station latitude":40.7380461425,
        "start station longitude":-73.9964295924
    },
    {
        "start station name":"E 13 St & Avenue A",
        "start station latitude":40.7296672939,
        "start station longitude":-73.980679661
    },
    {
        "start station name":"W 35 St & Dyer Ave",
        "start station latitude":40.7546917502,
        "start station longitude":-73.9974018931
    },
    {
        "start station name":"E 11 St & Avenue B",
        "start station latitude":40.7274642069,
        "start station longitude":-73.9795041829
    },
    {
        "start station name":"7 Ave & Central Park South",
        "start station latitude":40.7667405591,
        "start station longitude":-73.9790689945
    },
    {
        "start station name":"2 Ave & E 72 St",
        "start station latitude":40.7687620293,
        "start station longitude":-73.9584079385
    },
    {
        "start station name":"Avenue C & E 18 St",
        "start station latitude":40.730563,
        "start station longitude":-73.973984
    },
    {
        "start station name":"E 58 St &  1 Ave (NW Corner)",
        "start station latitude":40.759125,
        "start station longitude":-73.962658
    },
    {
        "start station name":"Stanton St & Norfolk St",
        "start station latitude":40.720747,
        "start station longitude":-73.986274
    },
    {
        "start station name":"6 Ave & Broome St",
        "start station latitude":40.7243083216,
        "start station longitude":-74.0047303587
    },
    {
        "start station name":"E 84 St & 3 Ave",
        "start station latitude":40.777553743,
        "start station longitude":-73.9551275969
    },
    {
        "start station name":"Lexington Ave & E 36 St",
        "start station latitude":40.747573959,
        "start station longitude":-73.9788007736
    },
    {
        "start station name":"Cliff St & Fulton St",
        "start station latitude":40.70838,
        "start station longitude":-74.00495
    },
    {
        "start station name":"E 12 St & 4 Av",
        "start station latitude":40.73269,
        "start station longitude":-73.98974
    },
    {
        "start station name":"Stuyvesant Walk & 1 Av Loop",
        "start station latitude":40.7323397772,
        "start station longitude":-73.9789838344
    }
]